"stop_id","stop_code","stop_name","stop_desc","stop_lat","stop_lon","zone_id","stop_url","location_type","parent_station","stop_timezone","wheelchair_boarding","level_id","platform_code"
"104931-2329808","3","W Tennessee Street and N Macomb Street","WTENMCMB","30.444821","-84.288119","","","0","","","1","",""
"104931-2329809","4","W Tennessee Street and N Copeland Street","TENNCOPE","30.44481","-84.291068","","","0","","","1","",""
"104931-2329810","5","W Tennessee Street and Raven St","W TE5","30.444841","-84.292798","","","0","","","1","",""
"104931-2329811","7","W Tennessee Street and W Brevard Street","W TE7","30.448418","-84.30241","","","0","","","1","",""
"104931-2329812","8","W Tennessee Street and Basin Street","W TE8","30.449188","-84.306548","","","0","","","1","",""
"104931-2329813","9","W Tennessee Street and Caliark Street","TENCALRK","30.44919","-84.311368","","","0","","","1","",""
"104931-2329815","12","N Ocala Road and Osceola Ridge","OCLAOS","30.452215","-84.317143","","","0","","","1","",""
"104931-2329816","13","N Ocala Road and Continental Avenue","TENNOCLA","30.455374","-84.317496","","","0","","","1","",""
"104931-2329817","16","N Ocala Road North of Continental Avenue","N OC16","30.457652","-84.318075","","","0","","","1","",""
"104931-2329818","17","N Ocala Road and Godby High School","OCLA GHS","30.459184","-84.317943","","","0","","","1","",""
"104931-2329819","18","W Tharpe Street and Devra Drive","W TH18","30.463506","-84.324149","","","0","","","1","",""
"104931-2329820","19","W Tharpe Street East of Maryellen Drive","W TH19","30.465471","-84.330869","","","0","","","0","",""
"104931-2329821","20","W Tharpe Street and Trimble Road","W TH20","30.465433","-84.335638","","","0","","","0","",""
"104931-2329822","21","W Tharpe Street W of Burns Drive","W TH21","30.46542","-84.339803","","","0","","","0","",""
"104931-2329823","22","W Tharpe Street and Nani Drive","W TH22","30.465408","-84.341429","","","0","","","0","",""
"104931-2329824","24","N Mission Road and Pecan Road","N MI24","30.469428","-84.344325","","","0","","","1","",""
"104931-2329825","25","N Mission Road and Hartsfield Road","MISNHART","30.473437","-84.344371","","","0","","","1","",""
"104931-2329826","26","N Mission Road and Moon Lane","N MI26","30.476476","-84.344463","","","0","","","1","",""
"104931-2329827","27","N Mission Road and Huntington Woods Boulevard","N MI27","30.481237","-84.344441","","","0","","","1","",""
"104931-2329828","28","N Mission Road and Mccord Boulevard","N MI28","30.484932","-84.344489","","","0","","","1","",""
"104931-2329829","29","N Mission Road and Gaffney Loop","N MI29","30.487467","-84.344491","","","0","","","1","",""
"104931-2329830","30","N Mission Road and Fred George Road","N MI30","30.492865","-84.344463","","","0","","","1","",""
"104931-2329831","32","Fred George Road and Springfield Elementary School crosswalk","FRED32","30.494456","-84.339413","","","0","","","1","",""
"104931-2329832","34","Fred George Road and Old Bainbridge Road","FRED34","30.498953","-84.335016","","","0","","","0","",""
"104931-2329833","37","Fred George Road and St. Louis Church","FRED37","30.496779","-84.337666","","","0","","","1","",""
"104931-2329834","40","N Mission Road and Fred George Road","N MI40","30.492441","-84.344679","","","0","","","1","",""
"104931-2329835","41","N Mission Road and Mission Trace Boulevard","N MI41","30.488073","-84.344668","","","0","","","1","",""
"104931-2329836","42","N Mission Road and Cayuga Street","N MI42","30.484934","-84.344712","","","0","","","1","",""
"104931-2329837","44","N Mission Road and Moon Lane","N MI44","30.477214","-84.344622","","","0","","","1","",""
"104931-2329838","45","N Mission Road and Hartsfield Road","MISNHRTF","30.47388","-84.344582","","","0","","","1","",""
"104931-2329839","48","W Tharpe Street and Burns Street","W TH48","30.465313","-84.34012","","","0","","","0","",""
"104931-2329840","49","W Tharpe Street and Trimble Road","W TH49","30.465323","-84.335993","","","0","","","0","",""
"104931-2329841","50","W Tharpe Street and Falcon Crest","W TH50","30.465354","-84.33054","","","0","","","0","",""
"104931-2329842","60","W Tennessee Street and Mission San Luis","TENMISSL","30.448311","-84.31801","","","0","","","1","",""
"104931-2329843","62","White Drive and San Luis Road","WHIT62","30.450576","-84.326149","","","0","","","1","",""
"104931-2329844","65","W Mission Road and Bonnie Drive","W MI65","30.455008","-84.331207","","","0","","","1","",""
"104931-2329845","66","W Mission Road west of Linwood Drive","W MI66","30.455556","-84.333676","","","0","","","1","",""
"104931-2329846","67","W Mission Road and Millers Drive","MISSMILL","30.456066","-84.337041","","","0","","","1","",""
"104931-2329847","69","W Mission Road and Greenon Lane","N MI69","30.457127","-84.341889","","","0","","","1","",""
"104931-2329848","70","N Mission Road and Rexwood Drive","N MI70","30.461219","-84.343155","","","0","","","1","",""
"104931-2329849","71","W Tharpe Street and N Mission Road","MISTHP1","30.46437","-84.343875","","","0","","","1","",""
"104931-2329850","73","N Blountstown Highway and Nekoma Lane","N BL73","30.462237","-84.346457","","","0","","","1","",""
"104931-2329851","74","W Tennessee Street and N Blountstown Highway","N BL74","30.456664","-84.345528","","","0","","","1","",""
"104931-2329852","75","W Tennessee Street and Bicycle Road","W TE75","30.458221","-84.349617","","","0","","","1","",""
"104931-2329853","78","W Tennessee Street East of Capital Circle Nw","W TE78","30.459543","-84.355863","","","0","","","1","",""
"104931-2329854","82","Capital Circle NW and Commonwealth Boulevard","CAPCREOL","30.47577","-84.363039","","","0","","","1","",""
"104931-2329855","84","3001 Commonwealth Boulevard","","30.474534","-84.352573","","","0","","","1","",""
"104931-2329856","87","Commonwealth Business Drive and Hartsfield Road","COMMHRTS","30.469645","-84.354701","","","0","","","1","",""
"104931-2329857","89","Hartsfield Road and NW Capital Circle","HART89","30.469621","-84.360339","","","0","","","1","",""
"104931-2329858","92","Capital Circle NW and Tennessee Capital Boulevard","NW C92","30.461916","-84.361328","","","0","","","1","",""
"104931-2329859","93","Capital West Shopping Center","W TE93","30.459271","-84.356494","","","0","","","1","",""
"104931-2329860","94","W Tennessee Street and Bicycle Road","W TE94","30.457907","-84.349504","","","0","","","1","",""
"104931-2329861","95","N Blountstown Highway and W Tennessee Street","BLNTTNNB","30.457121","-84.344862","","","0","","","0","",""
"104931-2329862","97","N Blountstown Highway and Carriage Manor Circle","N BL97","30.463875","-84.346447","","","0","","","1","",""
"104931-2329863","100","W Mission Road and Greenon Lane","N MI100","30.457361","-84.34232","","","0","","","1","",""
"104931-2329864","103","W Mission Road and Millers Drive (Mission at Retreat)","W MI103","30.455866","-84.33701","","","0","","","1","",""
"104931-2329865","104","2609 W Mission Road","","30.455454","-84.333692","","","0","","","1","",""
"104931-2329866","105","W Mission Road and Bonnie Drive","W MI105","30.454841","-84.331225","","","0","","","1","",""
"104931-2329867","107","W Mission Road and Cuerno Street","W MI107","30.454172","-84.328692","","","0","","","1","",""
"104931-2329868","108","White Drive and San Luis Road","WHIT108","30.450803","-84.326343","","","0","","","1","",""
"104931-2329870","112","Ocala Corners Shopping Center","TENOCLEB","30.448141","-84.317653","","","0","","","1","",""
"104931-2329871","113","W Tennessee Street and Caliark Street","W TE113","30.448941","-84.310643","","","0","","","1","",""
"104931-2329872","114","W Tennessee Street and Stadium Drive","W TE114","30.448905","-84.306962","","","0","","","1","",""
"104931-2329873","118","W Tennessee Street and N Copeland Street","W TE118","30.444598","-84.291003","","","0","","","1","",""
"104931-2329874","120","W Tennessee Street and N Martin Luther King Jr. Boulevard","W TE120","30.444589","-84.285775","","","0","","","1","",""
"104931-2329875","122","High Road and W Tennessee Street","HIGH122","30.449898","-84.313511","","","0","","","1","",""
"104931-2329876","124","1000 High Road","","30.453403","-84.313534","","","0","","","1","",""
"104931-2329877","125","High Road and Continental Avenue","HIGH125","30.456201","-84.313437","","","0","","","1","",""
"104931-2329878","127","High Road and High Court","HIGH127","30.45971","-84.313489","","","0","","","1","",""
"104931-2329879","128","High Road and High Court","HIGH128","30.460109","-84.313438","","","0","","","1","",""
"104931-2329880","131","High Road south of W Tharpe Street","HIGHTHRP","30.461986","-84.313381","","","0","","","1","",""
"104931-2329881","133","W Tharpe Street and Godby High School","W TH133","30.463465","-84.317558","","","0","","","1","",""
"104931-2329882","134","W Tennessee Street and Appleyard Drive","TENNAPLY","30.452394","-84.337132","","","0","","","1","",""
"104931-2329884","136","W Tennessee Street and University Trails","W TE136","30.450459","-84.332624","","","0","","","1","",""
"104931-2329885","137","W Tennessee Street and Tallahassee Student Apartments","W TE137","30.449717","-84.331778","","","0","","","1","",""
"104931-2329886","140","W Tennessee Street and Dixie Drive","W TE140","30.448122","-84.327906","","","0","","","1","",""
"104931-2329887","141","W Tennessee Street and Columbia Drive","TENNCOLU","30.445812","-84.323763","","","0","","","1","",""
"104931-2329888","142","S Appleyard Drive and W Tennessee Street","SBAPPTEN","30.4524","-84.338078","","","0","","","1","",""
"104931-2329890","152","W College Avenue and S Martin Luther King Jr. Boulevard","W CO152","30.44075","-84.285634","","","0","","","1","",""
"104931-2329891","157","Jackson Bluff Road and Chipley Street","JACK157","30.434402","-84.336571","","","0","","","1","",""
"104931-2329892","158","Jackson Bluff Road and Dupree Street","JACK158","30.434471","-84.33103","","","0","","","1","",""
"104931-2329893","159","Jackson Bluff Road and Dupree Street","JAXMBRY","30.434337","-84.332167","","","0","","","1","",""
"104931-2329894","161","Jackson Bluff Road and Mabry Street","JACK161","30.43456","-84.327158","","","0","","","1","",""
"104931-2329895","162","Jackson Bluff Road and Berkshire Drive","JACK162","30.43456","-84.32404","","","0","","","1","",""
"104931-2329896","163","Jackson Bluff Road and Berkshire Drive","JACK163","30.43459","-84.323734","","","0","","","1","",""
"104931-2329897","167","Jackson Bluff Road and Ausley Road","JACKAUSY","30.434461","-84.319348","","","0","","","1","",""
"104931-2329898","171","Jackson Bluff Road and Murat Street","JACK171","30.434413","-84.310765","","","0","","","0","",""
"104931-2329899","172","Jackson Bluff Road and Hayden Road","JACKHADN","30.43443","-84.307417","","","0","","","1","",""
"104931-2329900","176","W Lake Bradford Road and Jackson Bluff Road","LKBDJKBF","30.434551","-84.302035","","","0","","","1","",""
"104931-2329902","181","S Copeland Street and W Street Augustine Street","S CO181","30.43784","-84.29062","","","0","","","1","",""
"104931-2329903","183","S Bronough Street and W College Avenue","W CO183","30.440913","-84.284423","","","0","","","1","",""
"104931-2329904","195","W Pensacola Street and S Ocala Road","PNOCALEB","30.440546","-84.317261","","","0","","","0","",""
"104931-2329905","197","W Pensacola Street and N Lipona Road","W PE197","30.440572","-84.314194","","","0","","","1","",""
"104931-2329906","198","W Pensacola Street and Chapel Drive","W PE198","30.440346","-84.310721","","","0","","","1","",""
"104931-2329907","200","W Pensacola Street and Rivoli Road","W PE200","30.440175","-84.309417","","","0","","","1","",""
"104931-2329908","201","Stadium Drive and Hendry Street","STADHEN1","30.436203","-84.305851","","","0","","","1","",""
"104931-2329909","202","Florida State University Second Circle","FSU 2ND","30.436713","-84.30437","","","0","","","1","",""
"104931-2329910","203","Stadium Drive and Doak Campbell Stadium","STADDOAK","30.436158","-84.304433","","","0","","","1","",""
"104931-2329911","206","S Macomb Street and W Jefferson Street","MCBMJEFF","30.439842","-84.288503","","","0","","","1","",""
"104931-2329912","209","Gaines Street and Woodward Avenue","GAINWOOD","30.435561","-84.298363","","","0","","","1","",""
"104931-2329913","211","High Road and Sunset Lane","HIGHSSNB","30.467538","-84.312433","","","0","","","1","",""
"104931-2329914","212","High Road and Sunset Lane","HIGHSUNS","30.466827","-84.312605","","","0","","","1","",""
"104931-2329916","216","Old Bainbridge Road and Willamette Road","OLD 216","30.478451","-84.314781","","","0","","","1","",""
"104931-2329917","217","Portland Avenue and Mayfair Road","PORT217","30.47887","-84.316028","","","0","","","1","",""
"104931-2329918","218","Portland Avenue and Old Bainbridge Road","PORT218","30.478765","-84.316005","","","0","","","1","",""
"104931-2329919","219","Portland Avenue and Gothic Drive","PORT219","30.477587","-84.320616","","","0","","","1","",""
"104931-2329920","222","Atlas Road and Portland Avenue","ATLAPORT","30.477413","-84.322952","","","0","","","1","",""
"104931-2329921","224","Hartsfield Road and Atlas Road","HART224","30.473748","-84.322611","","","0","","","1","",""
"104931-2329922","226","Hartsfield Road and Maymeadow Lane","HART226","30.473045","-84.318868","","","0","","","1","",""
"104931-2329923","228","Hartsfield Road and Sylvan Court","HART228","30.473081","-84.316182","","","0","","","1","",""
"104931-2329924","229","Hartsfield Road and High Road","HART229","30.47235","-84.313555","","","0","","","1","",""
"104931-2329925","237","1817 W Call Street","","30.448594","-84.312217","","","0","","","1","",""
"104931-2329926","238","W Call Street and Chapel Drive","CALCHAPL","30.447911","-84.310026","","","0","","","1","",""
"104931-2329927","240","W Call Street and Conradi Street","CALLCONR","30.447264","-84.30815","","","0","","","1","",""
"104931-2329928","242","Stadium Drive and W Call Street","STAD242","30.446197","-84.306358","","","0","","","1","",""
"104931-2329929","245","W Call Street and Psychology Way","W CA245","30.445626","-84.303449","","","0","","","1","",""
"104931-2329931","249","Chieftan Way and Academic Way","KELLUM","30.447031","-84.301994","","","0","","","1","",""
"104931-2329932","252","Academic Way and Antarctic Way","ACAD252","30.446045","-84.298873","","","0","","","1","",""
"104931-2329933","253","Academic Way and Antarctic Way","ACA253","30.446188","-84.29877","","","0","","","0","",""
"104931-2329934","254","W Tennessee Street and Dewey Street","TENNDEWY","30.44458","-84.294178","","","0","","","1","",""
"104931-2329935","255","Oglesby Union","UNION EB","30.444934","-84.296332","","","0","","","1","",""
"104931-2329936","257","W Call Street and Dewey Street","W CA257","30.443533","-84.293419","","","0","","","1","",""
"104931-2329937","258","Pullen Road and Graves Road","PULL258","30.477963","-84.31201","","","0","","","0","",""
"104931-2329938","259","Pullen Road and Graves Road","PULL259","30.478079","-84.312195","","","0","","","0","",""
"104931-2329939","260","Pullen Road and Fred Smith Road","PULL260","30.477982","-84.309039","","","0","","","0","",""
"104931-2329940","262","1375 Pullen Road","","30.478081","-84.306875","","","0","","","0","",""
"104931-2329941","263","Calloway Street and Hospitality Road","CALLOWAY","30.479817","-84.30418","","","0","","","1","",""
"104931-2329942","265","N Monroe Street and Lakeshore Drive","MONRLKSH","30.479135","-84.301293","","","0","","","1","",""
"104931-2329943","268","N Monroe Street and Allen Road","N MO268","30.474288","-84.294653","","","0","","","1","",""
"104931-2329944","271","S Adams Street and W Park Avenue","S AD271","30.441953","-84.282012","","","0","","","1","",""
"104931-2329945","272","S Adams Street and W Park Avenue","S AD272","30.442098","-84.281971","","","0","","","1","",""
"104931-2329946","273","E Park Avenue and S Meridian Street","E PA273","30.441808","-84.277477","","","0","","","1","",""
"104931-2329947","274","E Park Avenue and N Meridian Street","E PA274","30.441955","-84.276885","","","0","","","1","",""
"104931-2329948","277","Governors Square Boulevard and S Magnolia Drive","GOVE277","30.439591","-84.261081","","","0","","","1","",""
"104931-2329949","281","Governors Square Boulevard and Reece Park Lane","GOVE281","30.439172","-84.258005","","","0","","","1","",""
"104931-2329950","283","E Park Avenue and S Calhoun Street","W PA283","30.442286","-84.279487","","","0","","","1","",""
"104931-2329951","284","N Monroe Street and Northwood Center Boulevard","N MO284","30.466137","-84.283961","","","0","","","1","",""
"104931-2329952","285","N Monroe Street and Northwood Center Boulevard","N MO285","30.466245","-84.284249","","","0","","","1","",""
"104931-2329953","286","N Monroe Street and W Bradford Road","N MO286","30.467892","-84.285535","","","0","","","1","",""
"104931-2329954","287","N Monroe Street and John Knox Road","MNRWLGRN","30.471422","-84.290179","","","0","","","1","",""
"104931-2329955","289","N Monroe Street at Tallahassee Mall","MNRMALL","30.472665","-84.291822","","","0","","","1","",""
"104931-2329956","290","N Monroe Street and Silver Slipper Lane","N MO290","30.470522","-84.289384","","","0","","","1","",""
"104931-2329957","291","N Monroe Street and Dellview Drive","N MO291","30.468923","-84.287198","","","0","","","1","",""
"104931-2329958","292","N Monroe Street and W Bradford Road","N MO292","30.467378","-84.285385","","","0","","","1","",""
"104931-2329959","293","Lake Jackson Town Center","FRDGOMNR","30.50262","-84.330968","","","0","","","1","",""
"104931-2329960","295","N Monroe Street and S Lake Ella Drive","LKELLASB","30.461933","-84.281778","","","0","","","1","",""
"104931-2329961","296","N Monroe Street and W 7th Avenue","MNR7THSB","30.458195","-84.280905","","","0","","","1","",""
"104931-2329962","297","N Monroe Street and W 5th Avenue","N MO297","30.454829","-84.280786","","","0","","","1","",""
"104931-2329963","298","N Monroe Street and W 3rd Avenue","N MO298","30.452697","-84.280823","","","0","","","1","",""
"104931-2329964","299","N Monroe Street and W Brevard Street","N MO299","30.449245","-84.280768","","","0","","","1","",""
"104931-2329966","302","N Monroe Street and E Brevard Street","MONBREVD","30.448933","-84.2806","","","0","","","1","",""
"104931-2329967","304","N Monroe Street and W 3rd Avenue","N MO304","30.452461","-84.28065","","","0","","","1","",""
"104931-2329968","305","N Monroe Street and E 5th Avenue","N MO305","30.454591","-84.280655","","","0","","","1","",""
"104931-2329969","306","N Monroe Street and Lake Ella Drive","LKELLANB","30.460958","-84.281235","","","0","","","1","",""
"104931-2329970","307","N Monroe Street and E Tharpe Street","MONTHARP","30.463525","-84.282226","","","0","","","1","",""
"104931-2329971","309","E Park Avenue and S Franklin Boulevard","E PA309","30.441901","-84.274425","","","0","","","1","",""
"104931-2329972","311","E Park Avenue and Cadiz Street","E PA311","30.441831","-84.270759","","","0","","","1","",""
"104931-2329973","312","E Park Avenue and Broward Street","E PA312","30.441708","-84.27005","","","0","","","1","",""
"104931-2329974","313","819 E Park Avenue","819 313","30.4417","-84.268932","","","0","","","1","",""
"104931-2329975","317","E Park Avenue and Smith Street","E PA317","30.441696","-84.264555","","","0","","","1","",""
"104931-2329976","318","E Park Avenue and Oak Street","E PA318","30.441811","-84.266977","","","0","","","1","",""
"104931-2329977","321","E Park Avenue and Hardee Street","PRKHRDEE","30.441815","-84.263075","","","0","","","1","",""
"104931-2329978","325","E Park Avenue and Blairstone Road","E PA325","30.441591","-84.248873","","","0","","","1","",""
"104931-2329979","332","Park Avenue and Parkbrook Circle","E PA332","30.442029","-84.236518","","","0","","","1","",""
"104931-2329980","334","Park Avenue and Richview Road","E PA334","30.44201","-84.232235","","","0","","","1","",""
"104931-2329981","337","Park Avenue and Capital Circle SE (Park Capitol Shopping Center)","PRKCCSE","30.441398","-84.226991","","","0","","","1","",""
"104931-2329982","338","Park Avenue and Capital Circle Se","PRKCCWB","30.44189","-84.227499","","","0","","","1","",""
"104931-2329983","341","Capital Circle SE and Dick Wilson Boulevard","SE C341","30.431389","-84.226882","","","0","","","1","",""
"104931-2329984","342","Apalachee Parkway and Vogue Drive","APAL342","30.427441","-84.224584","","","0","","","1","",""
"104931-2329985","343","Apalachee Parkway and Carin Road","APAL343","30.427752","-84.219824","","","0","","","0","",""
"104931-2329986","344","Apalachee Parkway and Idlewild Drive","APAL344","30.427861","-84.216682","","","0","","","0","",""
"104931-2329987","347","Sutor Road and Aksarben Drive","SUTO347","30.432322","-84.212112","","","0","","","1","",""
"104931-2329988","348","Lincoln High School","LINCOLN","30.43473","-84.2129","","","0","","","1","",""
"104931-2329989","349","Trojan Trail at Apalachee Elementary","TROJ349","30.434717","-84.215437","","","0","","","1","",""
"104931-2329990","352","Conner Boulevard and Trojan Trail","CONN352","30.440258","-84.219904","","","0","","","1","",""
"104931-2329991","359","W Call Street and Copeland","W CA359","30.443552","-84.291924","","","0","","","1","",""
"104931-2329993","363","W Jefferson Street at Ragan Hall","W JE363","30.43955","-84.299404","","","0","","","1","",""
"104931-2329994","364","W Jefferson Street at Dodd Hall","","30.439574","-84.292697","","","0","","","1","",""
"104931-2329995","366","W Jefferson Street and Varsity Drive","JEFFVRTY","30.439703","-84.299591","","","0","","","1","",""
"104931-2329996","368","Chieftan Way at Circus Complex","CHIE368","30.439875","-84.302898","","","0","","","1","",""
"104931-2329998","371","Tully Gym","TULLGYM","30.44218","-84.30274","","","0","","","1","",""
"104931-2329999","372","Spirit Way and Stadium Drive","SPIR372","30.44256","-84.305144","","","0","","","1","",""
"104931-2330000","376","E Lafayette Street and Suwannee Street (FL Department of Transportation)","E LA376","30.437532","-84.274193","","","0","","","1","",""
"104931-2330001","378","E Lafayette Street and Myers Park Drive","E LA378","30.437149","-84.271468","","","0","","","1","",""
"104931-2330002","379","E Lafayette Street and Myers Park Drive","E LA379","30.437241","-84.271098","","","0","","","0","",""
"104931-2330003","382","E Lafayette Street and Seminole Drive","E LA382","30.436363","-84.266803","","","0","","","1","",""
"104931-2330004","383","E Lafayette Street and Seminole Drive","E LA383","30.436433","-84.266457","","","0","","","0","",""
"104931-2330005","384","E Lafayette Street and S Magnolia Drive (Parkway Center)","LAFAMAGN","30.435288","-84.260783","","","0","","","1","",""
"104931-2330006","386","E Lafayette Street and E Indianhead Drive","E LA386","30.434853","-84.258134","","","0","","","1","",""
"104931-2330007","387","E Lafayette Street and W Indianhead Drive","E LA387","30.434826","-84.257091","","","0","","","0","",""
"104931-2330008","388","Apalachee Parkway and Blairstone Road","APAL388","30.431858","-84.249348","","","0","","","1","",""
"104931-2330009","390","Apalachee Parkway and Victory Garden Drive","APAL390","30.429055","-84.241556","","","0","","","1","",""
"104931-2330010","391","Apalachee Parkway and Richardson Road","APAL391","30.428656","-84.24052","","","0","","","1","",""
"104931-2330011","392","Apalachee Parkway and Executive Center Drive","EBPKYKGR","30.427202","-84.236353","","","0","","","1","",""
"104931-2330012","395","Executive Center Drive and Apalachee Parkway","EXEC395","30.426479","-84.2357","","","0","","","1","",""
"104931-2330013","396","Executive Center Drive and Executive Center Circle W (Koger Center)","EXEC396","30.425281","-84.235764","","","0","","","1","",""
"104931-2330014","397","2540 W Executive Center Circle (Koger Center)","2540EXEC","30.424341","-84.23652","","","0","","","1","",""
"104931-2330015","399","Executive Center Circle W and Executive Center Circle E","EXEC399","30.423138","-84.235151","","","0","","","1","",""
"104931-2330016","401","Centerview Dr before Midyette Road","CENTRVEW","30.420456","-84.23377","","","0","","","1","",""
"104931-2330017","402","Capital Circle SE and Blair Stone Road","CCSEBLRS","30.405221","-84.235154","","","0","","","1","",""
"104931-2330018","403","Esplanade Way and Merchants Row","ESPL403","30.391633","-84.231849","","","0","","","1","",""
"104931-2330019","406","Four Oaks Boulevard and Merchants Row at Southwood Town Center","TWNCTRNB","30.39139","-84.224677","","","0","","","1","",""
"104931-2330020","407","Four Oaks Boulevard and Baringer Hill","FOUR407","30.397736","-84.222835","","","0","","","1","",""
"104931-2330021","408","Four Oaks Boulevard and Blairstone Road","FOUR408","30.402076","-84.223879","","","0","","","1","",""
"104931-2330022","409","Blairstone Road and Capital Circle Se","BLAI409","30.402712","-84.233804","","","0","","","1","",""
"104931-2330023","410","Executive Center Circle and Seagate Drive","EXEC410","30.423588","-84.234463","","","0","","","1","",""
"104931-2330024","411","E Executive Center Circle and Executive Center Drive","EXCNTRNB","30.425187","-84.235084","","","0","","","1","",""
"104931-2330025","415","Old Saint Augustine Road EB at Social Security Office","OLDSOSEC","30.426171","-84.246546","","","0","","","1","",""
"104931-2330026","420","2600 Blair Stone Road","2600BLRS","30.425395","-84.24963","","","0","","","1","",""
"104931-2330027","425","Blair Stone Road and Winewood Boulevard","BLAI425","30.422526","-84.249316","","","0","","","1","",""
"104931-2330028","434","S Stadium Drive and Spirit Way","STA SHLT","30.443169","-84.306401","","","0","","","1","",""
"104931-2330029","438","Hayden Road and Bellevue Way","HAYD438","30.437428","-84.307491","","","0","","","1","",""
"104931-2330030","439","Bellevue Way and Rivoli Road","BELL439","30.438077","-84.309226","","","0","","","0","",""
"104931-2330031","441","Bellevue Way and Lovelace Drive","BELL441","30.43803","-84.312527","","","0","","","0","",""
"104931-2330032","442","Bellevue Way and S Ocala Road","BELL442","30.437999","-84.318063","","","0","","","1","",""
"104931-2330033","447","Blairstone Road and Old Saint Augustine Road","NBBLRAUG","30.428099","-84.249394","","","0","","","1","",""
"104931-2330034","463","Eisenhower Street and Orange Avenue","EISE463","30.414837","-84.334566","","","0","","","0","",""
"104931-2330035","466","Ridgeway Street and Kelly Street","EISE466","30.427206","-84.331719","","","0","","","0","",""
"104931-2330036","474","W Brevard Street and Dewey Street","W BR474","30.449094","-84.293812","","","0","","","1","",""
"104931-2330037","478","Woodward Avenue and Delaware Street","WOODDELA","30.45219","-84.298114","","","0","","","0","",""
"104931-2330038","479","Birmingham Street and Preston Street","BIRM479","30.452762","-84.299046","","","0","","","0","",""
"104931-2330039","481","Preston Street and Richmond Street","PRES481","30.452785","-84.302764","","","0","","","1","",""
"104931-2330040","483","Preston Street and Basin Street","PRESBASN","30.452703","-84.3063","","","0","","","0","",""
"104931-2330041","491","Colorado Street and W Tharpe Street","COLOTHRP","30.462931","-84.308031","","","0","","","1","",""
"104931-2330042","493","Old Bainbridge Road and Volusia Street","OLD 493","30.459028","-84.296357","","","0","","","1","",""
"104931-2330043","494","Volusia Street and Old Bainbridge Road","VOLU494","30.458257","-84.297204","","","0","","","0","",""
"104931-2330044","497","Joe Louis Street and Alabama Street","JOE 497","30.456444","-84.304904","","","0","","","0","",""
"104931-2330045","499","Alabama Street and Dade Street","ALAB499","30.456316","-84.297272","","","0","","","0","",""
"104931-2330047","501","Old Bainbridge Road and W 4th Avenue","OLDBA4TH","30.453769","-84.292734","","","0","","","1","",""
"104931-2330048","505","N Macomb Street and Georgia Street","N MA505","30.447403","-84.288373","","","0","","","1","",""
"104931-2330049","506","N Macomb Street and W Brevard Street","N MA506","30.449187","-84.288595","","","0","","","1","",""
"104931-2330050","508","N Macomb Street and Goodbread Lane","N MA508","30.451139","-84.288487","","","0","","","0","",""
"104931-2330051","516","W Tharpe Street and Dawsey Street","W TH516","30.463651","-84.289137","","","0","","","1","",""
"104931-2330052","517","W Tharpe Street and Martin Luther King Jr Boulevard","W TH517","30.463816","-84.286568","","","0","","","1","",""
"104931-2330053","518","Martin Luther King Jr Boulevard and Northwood Center","NORTWOOD","30.46539","-84.285453","","","0","","","1","",""
"104931-2330054","521","Allen Road at entrance to the Centre of Tallahassee","ALLE521","30.476994","-84.294154","","","0","","","1","",""
"104931-2330056","523","Allen Road and Acorn Grove Court","ALLE523","30.478838","-84.294228","","","0","","","1","",""
"104931-2330057","526","1325 W Tharpe Street","1525 W THARPE ST","30.463458","-84.305012","","","0","","","1","",""
"104931-2330058","531","Fulton Road and Arbor Station Lane","FULT531","30.4816","-84.289862","","","0","","","1","",""
"104931-2330059","532","Fulton Road near Sealy Elementary","FULT532","30.481657","-84.291419","","","0","","","1","",""
"104931-2330060","533","Grady Road and Tilden Lane","GRAD533","30.483629","-84.288991","","","0","","","1","",""
"104931-2330061","534","Grady Road and Steele Drive","GRAD534","30.485253","-84.289118","","","0","","","1","",""
"104931-2330062","536","Grady Road and Steele Drive","GRAD536","30.484729","-84.288995","","","0","","","1","",""
"104931-2330063","537","Henderson Road and Grady Road","HEND537","30.486055","-84.287544","","","0","","","1","",""
"104931-2330064","538","Grady Road and Thomas Road","GRAD538","30.488518","-84.286242","","","0","","","1","",""
"104931-2330065","543","231 Bermuda Road","BERM543","30.489594","-84.283553","","","0","","","1","",""
"104931-2330066","545","Bermuda Road and N Meridian Street","BERM545","30.489729","-84.277517","","","0","","","0","",""
"104931-2330067","547","Henderson Road and N Meridian Street","HEND547","30.486152","-84.277927","","","0","","","1","",""
"104931-2330070","554","Village Square Boulevard","VILLAGE","30.511034","-84.250246","","","0","","","1","",""
"104931-2330071","555","Maclay Boulevard and Maclay Commerce Drive","MACL555","30.509135","-84.252755","","","0","","","1","",""
"104931-2330072","557","Maclay Boulevard and Market Street","MACL557","30.506907","-84.25206","","","0","","","1","",""
"104931-2330073","558","Market Street and Timberlane Road","MARK558","30.50583","-84.253891","","","0","","","1","",""
"104931-2330074","559","Timberlane Road and Thomasville Road Near Side","TIMB559","30.504629","-84.253221","","","0","","","1","",""
"104931-2330075","560","Thomasville Road and Sandhurst Drive","THOM560","30.488388","-84.255703","","","0","","","1","",""
"104931-2330076","562","Thomasville Road and Gardenia Drive","THOM562","30.475224","-84.26354","","","0","","","1","",""
"104931-2330077","563","Thomasville Road and E Bradford Road","SBTVLBFD","30.466797","-84.268533","","","0","","","1","",""
"104931-2330078","564","E Bradford Road and Thomasville Road","BRDTVLWB","30.466876","-84.269214","","","0","","","1","",""
"104931-2330079","565","E Bradford Road and Thomasville Road","BRDTVLEB","30.46679","-84.269389","","","0","","","1","",""
"104931-2330080","566","548 E Bradford Road","E BR566","30.467608","-84.273146","","","0","","","1","",""
"104931-2330081","568","548 E Bradford Road","E BR568","30.467488","-84.273226","","","0","","","1","",""
"104931-2330082","570","N Meridian Road at London Town Apartments","LNDTWNOB","30.469321","-84.277149","","","0","","","1","",""
"104931-2330083","571","N Meridian Road and South Ride","N ME571","30.472359","-84.277169","","","0","","","1","",""
"104931-2330084","576","W Carolina Street and N Monroe Street","W CA576","30.446849","-84.280913","","","0","","","1","",""
"104931-2330085","577","E Carolina Street and N Gadsden Street","E CA577","30.446868","-84.278411","","","0","","","1","",""
"104931-2330086","578","N Gadsden Street and E Brevard Street","N GA578","30.448992","-84.278301","","","0","","","0","",""
"104931-2330087","579","Gadsden Street and Ingleside Avenue","GAD INGS","30.454412","-84.276703","","","0","","","1","",""
"104931-2330088","581","N Gadsden Street and 6th Avenue","GADSD6TH","30.456191","-84.276449","","","0","","","1","",""
"104931-2330089","583","Thomasville Road and Grape Street","THOM583","30.461602","-84.273549","","","0","","","1","",""
"104931-2330090","585","Thomasville Road at Miracle Plaza","MIRPLZIB","30.463896","-84.271099","","","0","","","1","",""
"104931-2330091","586","Thomasville Road and Betton Road","NBTVLBET","30.466996","-84.267999","","","0","","","1","",""
"104931-2330092","593","N Meridian Road at Meridian Place Apartments","N ME593","30.469632","-84.277316","","","0","","","1","",""
"104931-2330093","597","Thomasville Road at E 5th Avenue Crosswalk","THOM597","30.453776","-84.278581","","","0","","","1","",""
"104931-2330094","600","Magnolia Drive and E Call Street","N MA600","30.443617","-84.261647","","","0","","","1","",""
"104931-2330096","602","E Tennessee Street and Culpepper Drive","TENWBCUL","30.447524","-84.263108","","","0","","","1","",""
"104931-2330097","605","Mahan Drive and Marys Drive","MAHA605","30.449886","-84.255709","","","0","","","1","",""
"104931-2330098","608","Mahan Drive and N Point Court","MAHA608","30.451324","-84.25277","","","0","","","1","",""
"104931-2330099","609","Mahan Drive and Ty Ty Road","MAHA609","30.452699","-84.247917","","","0","","","1","",""
"104931-2330100","611","Mahan Drive and Riggins Road","MAHRIGEB","30.456725","-84.236858","","","0","","","1","",""
"104931-2330101","612","Mahan Drive and Waldo Palmer Lane","MAHA612","30.458154","-84.232918","","","0","","","1","",""
"104931-2330102","613","Capital Circle NE north of Mahan Drive","NW C613","30.461193","-84.227811","","","0","","","1","",""
"104931-2330103","614","Capital Circle NE and Automotive Way","NE C614","30.463776","-84.227944","","","0","","","1","",""
"104931-2330104","615","Capital Circle NE and Alexis Lane","NE C615","30.465939","-84.229534","","","0","","","1","",""
"104931-2330105","616","Miccosukee Road and Centre Pointe Boulevard","MICC616","30.468673","-84.232685","","","0","","","1","",""
"104931-2330106","617","Miccosukee Road and Sandcastle Road","MICC617","30.467158","-84.235351","","","0","","","1","",""
"104931-2330107","618","Miccosukee Road at Capital Oaks Villas","MICC618","30.465688","-84.237765","","","0","","","1","",""
"104931-2330108","624","Mahan Drive and Saint James Court","MAHA624","30.455869","-84.240143","","","0","","","1","",""
"104931-2330109","626","Mahan Drive and Blairstone Road","MAHA626","30.453317","-84.247118","","","0","","","1","",""
"104931-2330110","646","W Tharpe Street and Martin Luther King Jr Boulevard","MLKNWCTR","30.465866","-84.285704","","","0","","","1","",""
"104931-2330111","651","Fourth Avenue and N Macomb Street","FOUR651","30.453587","-84.2887","","","0","","","1","",""
"104931-2330112","660","Capital Circle NE and Killearn Center Boulevard","N E 660","30.505016","-84.249026","","","0","","","1","",""
"104931-2330113","661","Killearn Center Boulevard and Capital Circle Ne","KILL661","30.505699","-84.248038","","","0","","","1","",""
"104931-2330114","662","Village Square Boulevard and Killearn Center Boulevard","VILL662","30.506442","-84.246171","","","0","","","1","",""
"104931-2330115","663","1558 Village Square Boulevard","VILL663","30.50779","-84.245991","","","0","","","1","",""
"104931-2330116","664","Village Square Boulevard and Thomasville Road","VILL TVL","30.509851","-84.246255","","","0","","","0","",""
"104931-2330117","681","Capital Circle NE and Raymond Diehl Road","NE C681","30.49952","-84.247482","","","0","","","1","",""
"104931-2330118","683","3350 Capital Circle NE at Home Depot","3350HD","30.496935","-84.246602","","","0","","","1","",""
"104931-2330119","684","Capital Circle NE and Hermitage Boulevard","NE C684","30.493893","-84.244862","","","0","","","1","",""
"104931-2330120","687","Capital Circle NE and Lonnbladh Road","NE C687","30.487873","-84.239303","","","0","","","1","",""
"104931-2330121","688","Capital Circle NE and Greer Road","NE C688","30.484869","-84.237348","","","0","","","1","",""
"104931-2330122","689","Capital Circle NE and Dennis Street","NE C689","30.479506","-84.236914","","","0","","","1","",""
"104931-2330123","693","Centerville Road and Welaunee Boulevard","CENT693","30.479586","-84.233727","","","0","","","1","",""
"104931-2330124","694","Centerville Road and Eddie Road","CENT694","30.481799","-84.231642","","","0","","","0","",""
"104931-2330125","695","Fleischmann Road and Centerville Road","FLSHCENT","30.485381","-84.228618","","","0","","","1","",""
"104931-2330126","696","Fleischmann Road and Welaunee Road","FLEI696","30.480081","-84.225738","","","0","","","1","",""
"104931-2330127","697","2020 Fleischmann Road","2040 FLEISCHMANN RD","30.479555","-84.223282","","","0","","","1","",""
"104931-2330128","698","Fleischmann Road and Miccosukee Road","FLEI698","30.476237","-84.219762","","","0","","","1","",""
"104931-2330129","699","Miccosukee Road at Capital Medical Boulevard","MICC699","30.474738","-84.223195","","","0","","","1","",""
"104931-2330130","700","Capital Medical Boulevard and Capital Oaks Drive","CAPI700","30.475754","-84.224468","","","0","","","1","",""
"104931-2330131","702","Capital Medical Boulevard and Eider Court","CAPI702","30.476569","-84.227073","","","0","","","1","",""
"104931-2330132","704","Capital Medical Boulevard and Buford Court (Crmc)","CRMCSHL","30.474657","-84.231748","","","0","","","1","",""
"104931-2330133","706","Thomasville Road and N Piedmont Way","THOM706","30.495311","-84.254585","","","0","","","1","",""
"104931-2330134","711","Lonnbladh Road and Capital Circle Ne","LONNCCNE","30.488089","-84.238897","","","0","","","1","",""
"104931-2330135","712","Capital Circle NE and Northpoint Boulevard","NE C712","30.489884","-84.240713","","","0","","","1","",""
"104931-2330136","713","Capital Circle NE and Eastgate Way","NE C713","30.492867","-84.243483","","","0","","","1","",""
"104931-2330137","722","Miccosukee Road and Capital Circle Ne","MICCCCEB","30.468715","-84.232143","","","0","","","1","",""
"104931-2330138","723","Miccosukee Road and Ginger Drive","MICC723","30.472017","-84.227419","","","0","","","1","",""
"104931-2330139","729","Miccosukee Road and Capital Circle Ne","MICCCCWB","30.470025","-84.230591","","","0","","","1","",""
"104931-2330140","731","Miccosukee Road and Blairstone Road","MICC731","30.462754","-84.242709","","","0","","","1","",""
"104931-2330141","736","Miccosukee Road and Kuhlacre Drive","MICC736","30.460319","-84.2479","","","0","","","1","",""
"104931-2330142","737","Miccosukee Road and Mccauley Road","MICC737","30.459718","-84.248731","","","0","","","1","",""
"104931-2330143","738","Miccosukee Road at Chez Sois","MICC738","30.459005","-84.251308","","","0","","","1","",""
"104931-2330144","739","1839 Miccosukee Road","","30.458794","-84.251176","","","0","","","1","",""
"104931-2330145","742","Miccosukee Road and Spottswood Drive","MICC742","30.456202","-84.257689","","","0","","","1","",""
"104931-2330146","743","Miccosukee Road and Buckingham Drive","MICC743","30.457412","-84.253386","","","0","","","1","",""
"104931-2330147","746","Miccosukee Road and Surgeons Drive","MICC746","30.457275","-84.254288","","","0","","","1","",""
"104931-2330148","752","N Magnolia Drive and Mahan Drive","MAGMAHNB","30.448073","-84.262554","","","0","","","1","",""
"104931-2330149","755","N Magnolia Drive and Devils Dip","N MA755","30.451806","-84.262631","","","0","","","1","",""
"104931-2330150","756","N Magnolia Drive and Devils Dip","N MA756","30.451935","-84.262843","","","0","","","1","",""
"104931-2330151","760","E Tennessee Street and N Franklin Boulevard","E TE760","30.444838","-84.271926","","","0","","","1","",""
"104931-2330152","761","E Tennessee Street and N Franklin Boulevard","E TE761","30.444603","-84.272583","","","0","","","1","",""
"104931-2330153","763","E Tennessee Street and N Meridian Street","E TE763","30.4446","-84.277223","","","0","","","1","",""
"104931-2330154","765","Miccosukee Road at Leon High School","MICCLEON","30.44704","-84.275749","","","0","","","1","",""
"104931-2330155","766","Miccosukee Road at Leon High School","MICC766","30.447595","-84.275361","","","0","","","0","",""
"104931-2330156","769","Miccosukee Road and Washington Street","MICC769","30.450565","-84.272298","","","0","","","1","",""
"104931-2330157","770","Miccosukee Road and Mcdaniel Street","MICC770","30.450184","-84.272851","","","0","","","1","",""
"104931-2330158","771","Miccosukee Road and Harbert Street","MICC771","30.451858","-84.270558","","","0","","","1","",""
"104931-2330159","773","Miccosukee Road and Mitchell Avenue","MICC773","30.453565","-84.266751","","","0","","","1","",""
"104931-2330160","775","Miccosukee Road and Mitchell Avenue","MICC775","30.453809","-84.266483","","","0","","","1","",""
"104931-2330161","776","Miccosukee Road and N Magnolia Drive (Tmh)","MICCMGEB","30.45526","-84.262764","","","0","","","1","",""
"104931-2330162","777","Miccosukee Road and Lee Avenue","MICLEEW","30.455184","-84.26343","","","0","","","1","",""
"104931-2330163","778","Miccosukee Road and Phillips Road","MICCPHLP","30.460987","-84.24618","","","0","","","1","",""
"104931-2330164","779","Miccosukee Road and Riggins Road","MICC779","30.463138","-84.241196","","","0","","","1","",""
"104931-2330165","781","Miccosukee Road and Sandcastle Drive","MICC781","30.466847","-84.235271","","","0","","","1","",""
"104931-2330166","784","N Monroe Street and E Park Avenue","N MO784","30.441981","-84.280768","","","0","","","1","",""
"104931-2330167","785","S Monroe Street and W Jefferson Street","CRTHOUSE","30.439676","-84.280743","","","0","","","1","",""
"104931-2330168","786","S Monroe Street and W Madison Street","N MO786","30.436732","-84.280672","","","0","","","1","",""
"104931-2330169","787","S Monroe Street and W Gaines Street","MNRGAISB","30.435646","-84.280742","","","0","","","1","",""
"104931-2330170","788","S Monroe Street and W Pershing Street","S MO788","30.429221","-84.280747","","","0","","","1","",""
"104931-2330171","790","E Palmer Avenue and Monroe Street","PALMMNRO","30.427244","-84.280267","","","0","","","1","",""
"104931-2330172","791","1720 S Gadsden Street","GADBNDSB","30.425258","-84.278329","","","0","","","1","",""
"104931-2330173","794","S Gadsden Street and Perkins Street","S GA794","30.422407","-84.278299","","","0","","","1","",""
"104931-2330174","795","Perkins Street and S Meridian Street","PERK795","30.422184","-84.277223","","","0","","","1","",""
"104931-2330175","797","S Meridian Street and E Magnolia Drive","S ME797","30.420071","-84.277141","","","0","","","1","",""
"104931-2330176","801","S Meridian Street and Putnam Drive","S ME801","30.416606","-84.277149","","","0","","","1","",""
"104931-2330179","815","N Paul Russell Road and Prospect Street","PLRUPROS","30.405426","-84.273687","","","0","","","1","",""
"104931-2330180","816","W Paul Russell Road and S Meridian Street","W PA816","30.405216","-84.277155","","","0","","","1","",""
"104931-2330181","817","Paul Russell Road and S Monroe Street","N PA817","30.405358","-84.280446","","","0","","","1","",""
"104931-2330182","818","South Monroe Commons Shopping Center","PLRSADWB","30.405373","-84.281479","","","0","","","1","",""
"104931-2330183","820","Gaile Avenue and Woodville Highway","GAIL820","30.397805","-84.280736","","","0","","","1","",""
"104931-2330184","827","Jim Lee Road and N Paul Russell Road","JIM 827","30.406244","-84.263782","","","0","","","1","",""
"104931-2330185","829","Jim Lee Road and E Orange Avenue","NBJMLORG","30.412164","-84.263805","","","0","","","1","",""
"104931-2330186","830","E Orange Avenue and Pontiac Drive","E OR830","30.412733","-84.265778","","","0","","","1","",""
"104931-2330187","831","E Orange Avenue and Country Club Drive","E OR831","30.412781","-84.268536","","","0","","","1","",""
"104931-2330188","832","S Meridian Street and E Orange Avenue","MERDORNG","30.413001","-84.277201","","","0","","","1","",""
"104931-2330189","833","S Meridian Street and Laura Lee Avenue","S ME833","30.408789","-84.277122","","","0","","","0","",""
"104931-2330190","839","S Adams Street and Bragg Street","ADMBBRAG","30.403541","-84.282628","","","0","","","1","",""
"104931-2330191","840","Paul Russell Road and S Monroe Street","PRMNREB","30.405163","-84.28098","","","0","","","1","",""
"104931-2330192","846","S Gadsden Street at Bond Clinic","S GA846","30.425411","-84.278212","","","0","","","1","",""
"104931-2330193","848","E Palmer Avenue and S Monroe Street","PALMMONR","30.427332","-84.280468","","","0","","","0","",""
"104931-2330194","849","Crawfordville Highway and Gaile Avenue","ADAMGAIL","30.398345","-84.281137","","","0","","","1","",""
"104931-2330195","851","W Lake Bradford Road and Crate Street","W LA851","30.432202","-84.302155","","","0","","","1","",""
"104931-2330196","852","S Lake Bradford Road and Pepper Drive","S LA852","30.42898","-84.302466","","","0","","","1","",""
"104931-2330197","855","W Lake Bradford Road and Gamble Street","LKBDGMBL","30.426286","-84.302175","","","0","","","1","",""
"104931-2330198","857","Mc Caskill Avenue and Holmes Street","MCCA857","30.42548","-84.304759","","","0","","","1","",""
"104931-2330199","859","Mc Caskill Avenue and Highland Street","MCCA859","30.425457","-84.306621","","","0","","","1","",""
"104931-2330200","861","1607 Mc Caskill Avenue","MCCA861","30.425408","-84.308928","","","0","","","1","",""
"104931-2330201","865","Levy Avenue and Iamonia Street (Alumni Village)","LEVY865","30.42345","-84.310496","","","0","","","1","",""
"104931-2330202","866","Levy Avenue and Engineers Drive","LEVY866","30.423443","-84.317256","","","0","","","1","",""
"104931-2330203","867","Levy Avenue and Engineers Drive","LEVY867","30.423389","-84.317594","","","0","","","1","",""
"104931-2330204","883","Levy Avenue and Hillsborough Street","LEVYHILL","30.42345","-84.30662","","","0","","","1","",""
"104931-2330205","884","Levy Avenue and Warwick Street","LEVY884","30.423436","-84.303969","","","0","","","1","",""
"104931-2330206","885","Levy Avenue and Indian River Street","LEVY885","30.423607","-84.303396","","","0","","","1","",""
"104931-2330207","888","Woodville Highway and Shoreline Drive","WOOD888","30.391627","-84.277211","","","0","","","0","",""
"104931-2330208","890","Woodville Highway and Mcneil Boulevard","WOOD890","30.387315","-84.275309","","","0","","","0","",""
"104931-2330209","892","274 Ross Road","ROSS892","30.38179","-84.278861","","","0","","","1","",""
"104931-2330210","894","Shelfer Road and Capital Circle Sw","SHELCAPC","30.376077","-84.281638","","","0","","","1","",""
"104931-2330211","897","Forest Village Shopping Center","CCSEEOL","30.376036","-84.291653","","","0","","","1","",""
"104931-2330212","899","E Park Avenue and N Adams Street","EPAK33","30.442296","-84.281859","","","0","","","1","",""
"104931-2330213","900","Crawfordville Highway and Ross Road","CRAW900","30.381609","-84.289592","","","0","","","1","",""
"104931-2330214","902","Ross Road and Shelfer Road","ROSS902","30.381692","-84.282821","","","0","","","0","",""
"104931-2330215","903","506 Shelfer Road","SHEL903","30.383443","-84.282501","","","0","","","1","",""
"104931-2330216","905","Shelfer Road and Crawfordville Highway","SHEL905","30.389447","-84.285073","","","0","","","1","",""
"104931-2330217","907","Crawfordville Highway and S Hannon Hill","CRAWHANN","30.391805","-84.28447","","","0","","","1","",""
"104931-2330218","908","Crawfordville Highway and Wilson Green","CRAW908","30.395286","-84.282697","","","0","","","1","",""
"104931-2330219","910","Bragg Drive and Marks Trail","BRAG910","30.40471","-84.286348","","","0","","","1","",""
"104931-2330220","911","Bragg Drive and Wahnish Way","BRAG911","30.404799","-84.290175","","","0","","","1","",""
"104931-2330221","912","Bragg Drive and Pasco Street","BRAG912","30.405321","-84.293962","","","0","","","0","",""
"104931-2330222","913","Bragg Drive and Galimore Drive","BRAG913","30.405233","-84.297527","","","0","","","1","",""
"104931-2330223","914","Galimore Drive and Springsax Road","GALI914","30.407745","-84.297747","","","0","","","0","",""
"104931-2330224","915","Springsax Road and Notre Dame Street","SPRI915","30.407768","-84.302737","","","0","","","0","",""
"104931-2330225","916","North Ridge Road and Springsax Road","NORT916","30.407444","-84.30406","","","0","","","1","",""
"104931-2330226","917","North Ridge Road and Creek Road","NORT917","30.403628","-84.304023","","","0","","","1","",""
"104931-2330227","924","Ridge Road and Toucan Drive","RDGETOUC","30.397554","-84.302144","","","0","","","1","",""
"104931-2330228","925","N Ridge Road and Sunnyside Drive","N RI925","30.397572","-84.299135","","","0","","","1","",""
"104931-2330229","926","N Ridge Road and Sundown Road","N RI926","30.397526","-84.294883","","","0","","","0","",""
"104931-2330230","927","N Ridge Road and Ridge Haven","N RI927","30.397538","-84.289116","","","0","","","0","",""
"104931-2330231","929","N Ridge Road and Maurice Street","RDGMURCE","30.39755","-84.286465","","","0","","","0","",""
"104931-2330232","930","S Adams Street and Paul Russell Road","NBADMSPR","30.406032","-84.283785","","","0","","","1","",""
"104931-2330233","931","S Adams Street at County Library","SADMBASS","30.409465","-84.28333","","","0","","","1","",""
"104931-2330235","936","S Duval Street and W Jefferson Street","S DU936","30.439893","-84.283048","","","0","","","1","",""
"104931-2330236","937","N Magnolia Drive and E 7th Avenue","MAG 7TH","30.456974","-84.262754","","","0","","","1","",""
"104931-2330237","953","S Bronough Street and Pensacola Street","S BR952","30.438215","-84.284516","","","0","","","1","",""
"104931-2330238","954","S Bronough Street and W Harrison Street","S BR954","30.430639","-84.282953","","","0","","","1","",""
"104931-2330240","969","S Duval Street at W Madison Parking Garage","S DU969","30.436175","-84.28304","","","0","","","1","",""
"104931-2330241","970","S Duval Street and W Park Avenue","DUVA970","30.441748","-84.283036","","","0","","","1","",""
"104931-2330242","971","Levy Avenue and Hillsborough Street","LEVY971","30.423608","-84.30568","","","0","","","1","",""
"104931-2330243","973","N Lake Bradford Road and Hutchinson Street","N LA973","30.42052","-84.30242","","","0","","","1","",""
"104931-2330244","975","Springhill Road and W Lake Bradford Road","SPRI975","30.416824","-84.302448","","","0","","","1","",""
"104931-2330245","976","Springhill Road and W Orange Avenue","SPRI976","30.41293","-84.303414","","","0","","","1","",""
"104931-2330246","985","N Lake Bradford Road Hutchinson Street","N LA985","30.419896","-84.302211","","","0","","","1","",""
"104931-2330247","991","Holton Street and Osceola Street","HOLT991","30.421834","-84.296227","","","0","","","1","",""
"104931-2330248","1000","Wahnish Way and Osceola Street","OSCE1000","30.421564","-84.289578","","","0","","","1","",""
"104931-2330249","1007","W Palmer Avenue and S Martin Luther King Jr Boulevard","W PA1007","30.427211","-84.285523","","","0","","","1","",""
"104931-2330250","1008","S Martin Luther King Jr Boulevard and Palmer Street","S MA1008","30.427499","-84.285682","","","0","","","1","",""
"104931-2330251","1013","S Monroe Street and E Oakland Avenue","S MO1013","30.431321","-84.28057","","","0","","","1","",""
"104931-2330252","1017","Across from 445 Gamble Street","445GAM","30.428715","-84.287115","","","0","","","0","",""
"104931-2330253","1018","444 Gamble Street","GAMB1018","30.428796","-84.286943","","","0","","","1","",""
"104931-2330254","1026","Gamble Street and Wahnish Way","GAMWAHNB","30.428911","-84.290286","","","0","","","1","",""
"104931-2330255","1027","Gamble Street and Wahnish Way","GAMWAHSB","30.4291","-84.290585","","","0","","","1","",""
"104931-2330256","1028","Gamble Street and Perry Street","GAMB1028","30.429104","-84.292962","","","0","","","1","",""
"104931-2330257","1030","Gamble Street and S Disston Street","GAMB1030","30.428736","-84.296458","","","0","","","1","",""
"104931-2330261","1035","Holton Street and Campbell Street","HOLT1035","30.420029","-84.296261","","","0","","","1","",""
"104931-2330262","1036","Holton Street and Tucker Street","HOLT1036","30.418166","-84.296266","","","0","","","1","",""
"104931-2330263","1037","Holton Street and Wies Street","HOLT1037","30.416791","-84.296296","","","0","","","1","",""
"104931-2330264","1038","Pasco Street and Howard Avenue","PASC1038","30.413213","-84.294117","","","0","","","0","",""
"104931-2330265","1039","Wies Street and Pasco Street","WIES1039","30.416607","-84.294142","","","0","","","0","",""
"104931-2330266","1052","W Tennessee Street and Dixie Drive","TENNDIXI","30.447672","-84.327793","","","0","","","1","",""
"104931-2330267","1060","N Monroe Street and E 7th Avenue","MNR7THNB","30.457301","-84.280635","","","0","","","1","",""
"104931-2330268","2000","Orange Avenue at Adams Street","ORANSADA","30.412469","-84.282098","","","0","","","1","",""
"104931-2330269","2001","C.K. Steele Plaza Gate 17","GATE 17","30.443813","-84.282571","","","0","104931-2387599","","1","",""
"104931-2330270","2002","Callaway Street and Hospitality Road","CALLHOSP","30.480008","-84.304257","","","0","","","0","",""
"104931-2330271","2003","Atlas Road and Hartsfield Road","ATLAHART","30.473916","-84.323018","","","0","","","1","",""
"104931-2330272","2004","Portland Avenue and Gothic Drive","PORTGOTH","30.477486","-84.320474","","","0","","","1","",""
"104931-2330273","2005","Pullen Road at Seminole Ridge","PULLGRAD","30.477956","-84.307161","","","0","","","1","",""
"104931-2330274","2006","N Monroe Street and Balsam Terrace","MONRBALM","30.477172","-84.298578","","","0","","","1","",""
"104931-2330275","2008","E Park Ave and N Franklin Boulevard (Eastbound)","","30.441793","-84.275103","","","0","","","1","",""
"104931-2330276","2009","C.K. Steele Plaza Gate 12","GATE 12","30.444461","-84.2825","","","0","104931-2387599","","1","",""
"104931-2330277","2010","Magnolia Drive and Miccosukee Road","MAGMICC","30.454141","-84.262397","","","0","","","1","",""
"104931-2330278","751","Miccosukee Road and Magnolia Drive","TMH OB","30.455759","-84.26162","","","0","","","1","",""
"104931-2330279","2013","C.K. Steele Plaza Gate 16","GATE 16","30.443969","-84.282294","","","0","104931-2387599","","1","",""
"104931-2330280","2018","Mahan Drive and Powell Rd","MAHANPOW","30.460272","-84.226993","","","0","","","1","",""
"104931-2330281","2019","Fallchase Shopping Center","MHNWALMR","30.461404","-84.215928","","","0","","","1","",""
"104931-2330282","2020","C.K. Steele Plaza Gate 18","GATE 18","30.443958","-84.282756","","","0","104931-2387599","","1","",""
"104931-2330283","2021","C.K. Steele Plaza Gate 8","GATE 8","30.444207","-84.282535","","","0","104931-2387599","","1","",""
"104931-2330284","2022","S Bronough Street and W Gaines Street","BRGAINES","30.434753","-84.284388","","","0","","","1","",""
"104931-2330285","2023","C.K. Steele Plaza Gate 14","GATE 14","30.444236","-84.282189","","","0","104931-2387599","","1","",""
"104931-2330286","2026","S Duval Street and W Harrison Street","DUVHAR","30.430251","-84.282553","","","0","","","1","",""
"104931-2330287","2029","Mahan Drive at Publix","MHNPUBW","30.461368","-84.224912","","","0","","","1","",""
"104931-2330288","2031","Mahan Drive and Riggins Road","MHNRIG","30.457165","-84.236471","","","0","","","1","",""
"104931-2330289","2032","Volusia Street and Joe Lewis Street","VOLJOE","30.458262","-84.303924","","","0","","","1","",""
"104931-2330290","2036","Miccosukee Road and Tallahassee Memorial Healthcare","TMH IB","30.456022","-84.261528","","","0","","","1","",""
"104931-2330291","2037","W Tharpe Street and Dawsey Street","THDAW","30.463849","-84.288988","","","0","","","1","",""
"104931-2330292","2041","W Jefferson Street and Gray Street","SOUTHGTE","30.439647","-84.293646","","","0","","","1","",""
"104931-2330293","2043","C.K. Steele Plaza Gate 20","GATE 20","30.444082","-84.282799","","","0","","","1","",""
"104931-2330294","2044","W Pensacola Street and Ausley Road","PENAUSLY","30.440826","-84.319399","","","0","","","1","",""
"104931-2330295","2045","W Pensacola Street at Benchmark Apartments","WPEN 235","30.440971","-84.323529","","","0","","","1","",""
"104931-2330296","2047","S Monroe Street and E Gaines Street","MONGANNB","30.436161","-84.28057","","","0","","","1","",""
"104931-2330297","2049","Roberts Avenue and Rankin Avenue","ROB236","30.433257","-84.343716","","","0","","","1","",""
"104931-2330298","2056","Mabry Street and Roberts Avenue","MBRYRBTS","30.429204","-84.32973","","","0","","","1","",""
"104931-2330299","2057","W Pensacola Street and White Drive","PEN346","30.440926","-84.325209","","","0","","","1","",""
"104931-2330300","2058","W Pensacola Street at Benchmark Apartments","PENBENCH","30.440808","-84.323425","","","0","","","1","",""
"104931-2330301","2059","W Pensacola Street and Ausley Road","PENAUSIB","30.440646","-84.319639","","","0","","","1","",""
"104931-2330302","2060","W Pensacloa Street and S Lipona Road","PEN354","30.440401","-84.314486","","","0","","","1","",""
"104931-2330303","2061","Capital Circle NE and Capital Medical Boulevard","CAPMED","30.472453","-84.2323","","","0","","","1","",""
"104931-2330304","2062","Capital Circle NE and Miccosukee (far side)","CNEMICNB","30.470075","-84.230916","","","0","","","1","",""
"104931-2330305","2063","Capital Circle NE and Care Boulevard","CAPCARE","30.474949","-84.234968","","","0","","","1","",""
"104931-2330306","2065","Capital Circle NE at Publix","CAPPUBX","30.479155","-84.236664","","","0","","","1","",""
"104931-2330307","2066","Capital Circle NE and Raymond Diehl Road","CCNERYDH","30.500175","-84.247398","","","0","","","1","",""
"104931-2330308","2068","C.K. Steele Plaza Gate 7","GATE 7","30.444097","-84.282231","","","0","104931-2387599","","1","",""
"104931-2330309","2069","Thomasville Road and Village Square Boulevard","TVLVSQU","30.50988","-84.247233","","","0","","","1","",""
"104931-2330310","2072","Capital Circle NE and Tim Gamble Place","CCTMGAMB","30.476372","-84.236146","","","0","","","1","",""
"104931-2330311","2075","Capital Circle NE and Miccosukee Road","CCMICCSB","30.468832","-84.230782","","","0","","","1","",""
"104931-2330312","2076","W Tennessee St at High Road Wb","W TE 234","30.449217","-84.314212","","","0","","","1","",""
"104931-2330313","2077","Capital Circle NE and Exeter Road","CCNEEXET","30.463185","-84.228108","","","0","","","1","",""
"104931-2330314","2078","Capital Circle NE and Mahan Drive (nearside)","CCMAHAN","30.460187","-84.228196","","","0","","","1","",""
"104931-2330316","2080","Capital West Shopping Center","WALSHLTR","30.460238","-84.360811","","","0","","","1","",""
"104931-2330317","2081","Capital Circle NW North of W Tharpe Street","CANW12","30.46571","-84.360984","","","0","","","1","",""
"104931-2330318","2082","Capital Circle NW and Brittany Boulevard","CANW14","30.471688","-84.361317","","","0","","","1","",""
"104931-2330319","2083","Apalachee Parkway at Walmart Shopping Center","PKWALMRT","30.427293","-84.213873","","","0","","","1","",""
"104931-2330320","2084","N Mission Road and Pecan Road","MISSPEC","30.469817","-84.344433","","","0","","","1","",""
"104931-2330321","2085","E Park Avenue and Blair Stone Road","PARBSTON","30.441912","-84.247589","","","0","","","1","",""
"104931-2330322","2086","N Mission Road and Tharpe Street","MISNTHRP","30.465276","-84.343132","","","0","","","1","",""
"104931-2330323","2087","Capital Circle NW south of Home Depot","CANW 56","30.46599","-84.361442","","","0","","","1","",""
"104931-2330324","2089","Governors Square Boulevard and Magnolia","GSBMAGWB","30.439852","-84.261504","","","0","","","1","",""
"104931-2330325","2091","W Tennessee Street and High Road","TENNHIGH","30.44893","-84.313739","","","0","","","1","",""
"104931-2330326","2094","Tennessee Street and Wadsworth Street","TENNWADS","30.448737","-84.304655","","","0","","","1","",""
"104931-2330327","2097","W Tennessee Street and N Woodward Avenue","TENNWWD","30.446339","-84.298848","","","0","","","1","",""
"104931-2330328","2098","Appleyard Drive at Starmetro","STARMETO","30.434616","-84.337757","","","0","","","1","",""
"104931-2330329","2099","Appleyard Drive and Municipal Way","NBAPMUNI","30.439307","-84.337778","","","0","","","1","",""
"104931-2330330","2100","Appleyard Drive and Tallahassee Community College Crosswalk","APPTCC","30.443736","-84.337809","","","0","","","1","",""
"104931-2330332","2102","Tallahassee Community College","TCCSB","30.446547","-84.338779","","","0","","","1","",""
"104931-2330333","2103","Ocala Road at Godby High School","OCAGODBY","30.460444","-84.318271","","","0","","","1","",""
"104931-2330334","2104","W Tennessee Street and N Martin Luther King Jr Boulevard","WTE21","30.444785","-84.285522","","","0","","","1","",""
"104931-2330335","2105","Ocala Road and Continental Avenue","OCACONTI","30.455779","-84.31784","","","0","","","1","",""
"104931-2330336","2108","Appleyard Drive and Tennessee Street","NBAPTENN","30.451265","-84.337775","","","0","","","1","",""
"104931-2330337","2110","Ocala Road across from Osceola Ridge (Ocala and 1001)","OCA1001","30.452268","-84.317528","","","0","","","1","",""
"104931-2330338","2112","C.K. Steele Plaza Gate 15","GATE 15","30.444047","-84.282204","","","0","104931-2387599","","1","",""
"104931-2330340","2120","C.K. Steele Plaza Gate 9","GATE 9","30.444233","-84.282784","","","0","104931-2387599","","1","",""
"104931-2330341","2121","C.K. Steele Plaza Gate 1","GATE 1","30.444383","-84.282919","","","0","104931-2387599","","1","",""
"104931-2330343","2125","C.K. Steele Plaza Gate 10","GATE 10","30.444269","-84.282826","","","0","104931-2387599","","1","",""
"104931-2330344","2127","C.K. Steele Plaza Gate 11","GATE 11","30.444388","-84.282681","","","0","104931-2387599","","1","",""
"104931-2330345","2128","Appleyard Drive at Tallahassee Community College Crosswalk","APL598","30.444348","-84.33808","","","0","","","1","",""
"104931-2330346","2129","C.K. Steele Plaza Gate 13","GATE 13","30.444364","-84.282336","","","0","104931-2387599","","1","",""
"104931-2330347","2130","C.K. Steele Plaza Gate 21","GATE 21","30.443845","-84.282576","","","0","104931-2387599","","1","",""
"104931-2330348","2131","C.K. Steele Plaza Gate 22","GATE 22","30.444092","-84.282255","","","0","104931-2387599","","1","",""
"104931-2330349","2132","Appleyard Drive and Municipal Way","APLMUNIC","30.439829","-84.338091","","","0","","","1","",""
"104931-2330350","2134","C.K. Steele Plaza Gate 19","GATE 19","30.444029","-84.282831","","","0","104931-2387599","","1","",""
"104931-2330351","2135","Ross Road and Woodville Highway","ROSSWDVL","30.381528","-84.273328","","","0","","","1","",""
"104931-2330352","2136","Appleyard Drive at Starmetro","APLSTARM","30.435147","-84.338091","","","0","","","1","",""
"104931-2330353","2137","Jackson Bluff Road and Ausley Road","JACAUSLE","30.434353","-84.319693","","","0","","","1","",""
"104931-2330355","2140","Jackson Bluff Road and Lipona Road","JACLIPON","30.434333","-84.314926","","","0","","","0","",""
"104931-2330356","2142","Jackson Bluff Road and Airport Drive","JACAIRPO","30.434377","-84.310984","","","0","","","1","",""
"104931-2330357","2144","Jackson Bluff Road and Hendry Street","JAXHNDRY","30.434385","-84.306655","","","0","","","1","",""
"104931-2330358","2149","S Monroe Street and E Pershing Street","SMON 44","30.429404","-84.280563","","","0","","","1","",""
"104931-2330359","2150","S Monroe Street and E Oakland Avenue","SMON45","30.431537","-84.28076","","","0","","","1","",""
"104931-2330360","2152","Copeland Street and W College Avenue","COPCOLL","30.440699","-84.290808","","","0","","","1","",""
"104931-2330361","2156","Blair Stone Road and Kay Avenue","BLSTKAY","30.413367","-84.251167","","","0","","","1","",""
"104931-2330362","2158","W College Avenue and Martin Luther King Jr Boulevard","COLMLK","30.440669","-84.285958","","","0","","","1","",""
"104931-2330363","2159","W Pensacola Street and Appleyard Drive","PENAPPWB","30.441197","-84.338957","","","0","","","1","",""
"104931-2330364","2160","Pensacola Street and Blountstown Street","PENSBLUT","30.437299","-84.349418","","","0","","","0","",""
"104931-2330365","2161","4070 Esplanade Way","ESPSHUM","30.388937","-84.232491","","","0","","","1","",""
"104931-2330366","2162","Blountstown Highway at Ghazvini Learning Center","BLOUNTST","30.445078","-84.346968","","","0","","","0","",""
"104931-2330367","2163","Shumard Oaks and Merchants Wb (Fl Department Of Revenue)","SHUMERCH","30.387496","-84.237867","","","0","","","1","",""
"104931-2330368","2164","Blair Stone Road and Willow Bend Way","BLSTWLLW","30.4168","-84.250763","","","0","","","1","",""
"104931-2330369","2166","N Mission Road south of W Tharpe Street","MISSTHRP","30.46445","-84.344027","","","0","","","1","",""
"104931-2330370","2168","N Mission Road and Rexwood Drive","MISSGREE","30.461346","-84.34335","","","0","","","1","",""
"104931-2330371","2169","Blair Stone Road and Winewood Way","BLARWWD","30.422611","-84.248989","","","0","","","1","",""
"104931-2330372","2171","N Blountstown Highway and Bicycle Road","BLUTTENN","30.459545","-84.346113","","","0","","","0","",""
"104931-2330375","2179","Florida State University 1st Circle","FSU 1ST","30.438165","-84.302659","","","0","","","1","",""
"104931-2330377","2181","Pottsdamer Street and E Pual Drac Drive","POTT23","30.423061","-84.320662","","","0","","","1","",""
"104931-2330378","2187","W Pensacola Street and Atkinson Drive","PENATKIN","30.440256","-84.311284","","","0","","","1","",""
"104931-2330379","2188","Ocala Road at Heritage Grove","OCALAHER","30.445615","-84.316956","","","0","","","1","",""
"104931-2330380","2191","Belle Vue Way and Mabry Street","BELMBRY","30.438126","-84.327801","","","0","","","1","",""
"104931-2330381","2192","Jackson Bluff Road and Revell Drive","SEMISUTE","30.434462","-84.327234","","","0","","","1","",""
"104931-2330382","2194","Florida State University Student Union","STUNION","30.44506","-84.296308","","","0","","","1","",""
"104931-2330384","2200","W Tennessee Street and Woodward Avenue","TENWODWB","30.446136","-84.297764","","","0","","","1","",""
"104931-2330385","2202","Thomasville Road at Miracle Plaza","MIRPLZOB","30.463393","-84.271214","","","0","","","1","",""
"104931-2330386","2205","W Jefferson Street at Lorene Street","WODJE37","30.439693","-84.295909","","","0","","","1","",""
"104931-2330387","2206","E Bradford Road and N Meridian Road","BRDMRDIB","30.467528","-84.276235","","","0","","","1","",""
"104931-2330388","2207","E Tennessee Street and N Meridian Street","TEN-MER","30.4448","-84.276874","","","0","","","1","",""
"104931-2330389","2210","W Tennessee Street and Pat Thomas Boulevard","TENNPTHM","30.454684","-84.341084","","","0","","","1","",""
"104931-2330390","2211","Commonwealth Boulevard at Department of Environmental Protection","COMMDEP","30.47588","-84.358859","","","0","","","1","",""
"104931-2330391","2212","Capital Circle NW at Home Depot","CAPHDPOT","30.468494","-84.361437","","","0","","","1","",""
"104931-2330392","2213","Paul Dirac Drive and Levy Avenue","","30.424534","-84.319691","","","0","","","1","",""
"104931-2330393","2214","W Tennessee Street and and Blountstown Street","TENNBLUT","30.456205","-84.345299","","","0","","","0","",""
"104931-2330394","2215","W Tennessee Street and Pat Thomas Boulevard","TENPTHOM","30.454494","-84.341418","","","0","","","1","",""
"104931-2330395","2216","Blair Stone Road at Shopping Center","BLSTKMRT","30.430227","-84.249369","","","0","","","1","",""
"104931-2330396","2217","W College Avenue at Klemen Plaza","COLDUVAL","30.440677","-84.283173","","","0","","","1","",""
"104931-2330397","2218","W Jefferson Street and S Copeland Street","JEFCOP","30.439672","-84.290298","","","0","","","1","",""
"104931-2330398","2219","Pottsdamer Street at College of Engineering","POTT54","30.419673","-84.318036","","","0","","","1","",""
"104931-2330399","2222","Jackson Bluff Road and Chipley Street","JBCHPLY","30.43431","-84.336506","","","0","","","1","",""
"104931-2330401","2224","S Monroe Street and E Jefferson Street","MONRJEFF","30.439466","-84.280497","","","0","","","1","",""
"104931-2330402","2227","Chieftan Way and W Call Street","CHICAL","30.445079","-84.302322","","","0","","","1","",""
"104931-2330404","2234","Levy Avenue west of Pennell Circle (Alumni Village)","ALUMPENN","30.423772","-84.311468","","","0","","","0","",""
"104931-2330406","2236","W Tennessee Street and Appleyard Drive","TENAPPWB","30.452496","-84.336567","","","0","","","0","",""
"104931-2330407","2237","N Magnolia Drive and Tennessee","MAG MAHN","30.447781","-84.262655","","","0","","","1","",""
"104931-2330408","2238","Commonwealth Boulevard and Commonwealth Business Drive","COMMBUSN","30.474593","-84.354659","","","0","","","1","",""
"104931-2330409","2239","W Tennessee Street and N Macomb Street","TENNMCMB","30.444558","-84.288891","","","0","","","1","",""
"104931-2330410","2241","Mahan Drive and N Magnolia Drive","MAHNMAGN","30.447936","-84.261222","","","0","","","1","",""
"104931-2330411","2242","Mahan Drive and Concord Road","MHNCNCRD","30.45546","-84.240347","","","0","","","1","",""
"104931-2330412","2244","Mahan Drive and Lagniappe Way","MHNLAGNP","30.463307","-84.218516","","","0","","","1","",""
"104931-2330413","2245","Weems Road and Acadian Boulevard","WEEMACAD","30.460878","-84.222284","","","0","","","1","",""
"104931-2330414","2246","Mahan Drive and Capital Circle Ne","MHNCPWB","30.459942","-84.228773","","","0","","","1","",""
"104931-2330415","2247","Mahan Drive and Jaydell Circle","MHNJAYDL","30.45893","-84.231558","","","0","","","1","",""
"104931-2330416","2248","Mahan Drive and Marys Drive","MHNMARY","30.450279","-84.255503","","","0","","","1","",""
"104931-2330417","2252","W Tennessee Street and White Street","TENNCLMB","30.446942","-84.325409","","","0","","","1","",""
"104931-2330418","2253","Governors Square Mall","GOVNMALL","30.437382","-84.25546","","","0","","","1","",""
"104931-2330419","2254","Blountstown Highway and Tennessee Street","BLNTTENN","30.455863","-84.344819","","","0","","","1","",""
"104931-2330420","2255","E Park Avenue and S Magnolia Drive (Winn Dixie)","PRKWNDX","30.441645","-84.260494","","","0","","","1","",""
"104931-2330421","2256","Reece Park and E Park Avenue (Southbound)","REECPARK","30.440824","-84.255382","","","0","","","1","",""
"104931-2330422","2257","N Monroe Street and Mc Kee Road","NMNRMKEE","30.498621","-84.327466","","","0","","","0","",""
"104931-2330423","2258","N Monroe Street and Talpeco Road","MONTAPCO","30.491404","-84.323722","","","0","","","1","",""
"104931-2330424","2259","N Monroe Street and Sessions Road","MONRSESS","30.487541","-84.318037","","","0","","","1","",""
"104931-2330425","2260","N Monroe Street and Graves Road","MNROGRVS","30.485592","-84.314208","","","0","","","0","",""
"104931-2330426","2263","South Meridian Street and Paul Russell Road","SMRDPLRU","30.405416","-84.277149","","","0","","","0","",""
"104931-2330427","2267","W Tharpe Street and Martin Luther King Jr Boulevard","TRPMLKWB","30.463788","-84.285147","","","0","","","1","",""
"104931-2330428","2268","N Monroe Street and Universal Drive","NMRIHOP","30.470038","-84.288312","","","0","","","1","",""
"104931-2330430","2271","N Monroe Street and Lakeshore Road","NMRLKSHR","30.479662","-84.301501","","","0","","","0","",""
"104931-2330431","2272","N Monroe Street and Okeeheepkee Road","NMROKEE","30.485714","-84.313797","","","0","","","0","",""
"104931-2330432","2273","N Monroe Street at Walmart","NMRWLMRT","30.488415","-84.31943","","","0","","","1","",""
"104931-2330433","2274","N Monroe Street and Talpeco Road","NMRTLPCN","30.49407","-84.324771","","","0","","","0","",""
"104931-2330434","2275","N Monroe Street and Reservation Trail","NMRRESV","30.499642","-84.327622","","","0","","","1","",""
"104931-2330435","2279","Maclay Commerce Drive and Thomasville Road","MCLYCMRC","30.50835","-84.249268","","","0","","","1","",""
"104931-2330436","2281","Thomasville Road and 6th Avenue","TVLSIXTH","30.456734","-84.277376","","","0","","","1","",""
"104931-2330437","2283","N Calhoun Street and E Carolina Street","CALHOUN","30.447119","-84.279673","","","0","","","1","",""
"104931-2330438","2284","W College Avenue and S Bronough Street","COLBRNGH","30.440758","-84.284278","","","0","","","1","",""
"104931-2330439","2286","Orange Avenue and Lake Henrietta Street","ORGLIBPK","30.41273","-84.307908","","","0","","","0","",""
"104931-2330440","2287","Orange Avenue and Pottsdamer Street","ORGPOTTS","30.412716","-84.313912","","","0","","","0","",""
"104931-2330441","2288","Pottsdamer Street and Red Barber Way","POTTSRDB","30.417559","-84.314632","","","0","","","1","",""
"104931-2330442","2289","N Lake Bradford Drive and Pepper Drive","LKBFPEPR","30.429189","-84.302194","","","0","","","1","",""
"104931-2330443","2290","Thomasville Road and Armistead Road","TVLARMST","30.475784","-84.26264","","","0","","","1","",""
"104931-2330444","2291","Thomasville Road and Woodgate Way","TETVWODG","30.486068","-84.256568","","","0","","","1","",""
"104931-2330445","2293","Thomasville Road and Metropolitan Boulevard","TVLMTPNB","30.498297","-84.253334","","","0","","","1","",""
"104931-2330446","2294","Trojan Trail at Adult and Community Education","ACECTR","30.438176","-84.21872","","","0","","","1","",""
"104931-2330447","2295","Park Avenue and Victory Garden Drive","PRKVICTR","30.441958","-84.240876","","","0","","","1","",""
"104931-2330448","2297","Governor's Square Boulevard at The Movies","GVBLVMV","30.439345","-84.257872","","","0","","","1","",""
"104931-2330449","2298","N Duval Street and W Georgia Street","DVLGORGA","30.447892","-84.283023","","","0","","","1","",""
"104931-2330450","2299","Hartsfield Road and N Mission Road","HRTSMISN","30.473616","-84.344662","","","0","","","1","",""
"104931-2330452","2302","W Tharpe Street and Old Bainbridge Road","TRPOBNBG","30.463513","-84.300469","","","0","","","1","",""
"104931-2330453","2303","W Tharpe Street and Gibbs Drive","TRPGIBB","30.463604","-84.292266","","","0","","","1","",""
"104931-2330454","2304","W Tharpe Street and Martin Luther King Jr Boulevard","THRPMLK","30.463591","-84.285838","","","0","","","1","",""
"104931-2330455","2305","N Bronough Street and 10th Avenue","BROTNTH","30.461308","-84.285167","","","0","","","1","",""
"104931-2330456","2306","N Bronough Street and W 7th Avenue","BRNGSVTH","30.457936","-84.284454","","","0","","","1","",""
"104931-2330457","2307","N Bronough Street and 4th Avenue","BRNGFRTH","30.453263","-84.284447","","","0","","","1","",""
"104931-2330458","2308","N Bronough Street and W Georgia Street","BRNGBRVD","30.447765","-84.284444","","","0","","","1","",""
"104931-2330459","2310","Reece Park E and Park Avenue (Northbound)","RECEPKNB","30.44083","-84.255158","","","0","","","1","",""
"104931-2330460","2311","E Park Avenue and Victory Garden Drive","PRKVGRDE","30.441696","-84.241338","","","0","","","1","",""
"104931-2330461","2312","Park Avenue and Collinsford Road","PRKCOLEB","30.441742","-84.236912","","","0","","","1","",""
"104931-2330462","2313","Park Avenue and Richview Road","PRKRHVWE","30.441763","-84.23277","","","0","","","1","",""
"104931-2330463","2315","Conner Boulevard at pedestrian bridge","CNRPEDOV","30.439954","-84.210059","","","0","","","1","",""
"104931-2330464","2316","Conner Boulevard and Old Plantation Road","CNROLPLN","30.438234","-84.202474","","","0","","","1","",""
"104931-2330465","2318","N Duval Street and W 4th Avenue","DVLFORTH","30.453515","-84.282996","","","0","","","0","",""
"104931-2330466","2319","Martin Luther King Jr Boulevard and 10th Avenue","MLKTENTH","30.461394","-84.28498","","","0","","","1","",""
"104931-2330467","2320","W Tharpe Street and Gibbs Drive","THPGBBWB","30.463782","-84.291629","","","0","","","1","",""
"104931-2330468","2321","W Tharpe Street and Old Bainbridge Road","THPOLBBG","30.463765","-84.298483","","","0","","","1","",""
"104931-2330469","2322","W Tharpe Street and Rosedale Drive","THRPRDAL","30.46368","-84.307905","","","0","","","1","",""
"104931-2330470","2323","W Tharpe Street and High Road","THRPHIGH","30.463649","-84.313223","","","0","","","1","",""
"104931-2330471","2324","W Tharpe Street and Fairlane Road","THRPFAIR","30.463626","-84.317931","","","0","","","1","",""
"104931-2330472","2325","W Tharpe Street and Devra Drive","THRPDVRA","30.463656","-84.323679","","","0","","","0","",""
"104931-2330473","2327","Fred George Road and Old Bainbridge Road","FRDOLBB","30.499388","-84.334987","","","0","","","1","",""
"104931-2330474","2328","Fred George Road and Woodhill Drive","FDGWDHLL","30.493907","-84.341636","","","0","","","1","",""
"104931-2330475","2329","N Mission Road and Gearhart Road","MSNGRHRT","30.481664","-84.3446","","","0","","","1","",""
"104931-2330476","2330","N Mission Road and Appleyard Drive","MSNAPYD","30.454998","-84.338654","","","0","","","1","",""
"104931-2330477","2331","Jackson Bluff Road and Lipona Road","JKBLFLPN","30.434441","-84.314582","","","0","","","0","",""
"104931-2330478","2332","N Mission Road and Appleyard Drive","MISAPYNB","30.454051","-84.33776","","","0","","","1","",""
"104931-2330479","2333","Fred George Road at Springwood Elementary Crosswalk","FRDGSTW","30.494249","-84.339528","","","0","","","1","",""
"104931-2330481","2335","Magnolia Drive and Miccosukee Road (Tmh)","SBCTVTMH","30.455736","-84.262571","","","0","","","1","",""
"104931-2330482","2336","Magnolia Drive and Governors Square Boulevard","MAGGOVSB","30.439948","-84.261922","","","0","","","1","",""
"104931-2330483","2337","Magnolia Drive and Lafayette Street","MAGLAFSB","30.435017","-84.26194","","","0","","","1","",""
"104931-2330484","2339","Magnolia Drive and Circle Drive","MAGCRCLE","30.430769","-84.261926","","","0","","","1","",""
"104931-2330485","2341","Jim Lee Road and Chocksacka Nene","JMLECHCK","30.42007","-84.263982","","","0","","","1","",""
"104931-2330486","2343","Jim Lee Road and Orange Avenue Sb","JMLEORSB","30.413087","-84.264032","","","0","","","1","",""
"104931-2330487","2344","Jim Lee Road at Rickards High School","JMLERKRD","30.407761","-84.264004","","","0","","","1","",""
"104931-2330488","2345","Jim Lee Road and Paul Russell Road","JMLEPLRS","30.405548","-84.26393","","","0","","","1","",""
"104931-2330489","2346","Paul Russel Road and Zillah Street","PLRSZILH","30.405376","-84.269","","","0","","","1","",""
"104931-2330490","2347","Paul Russell Road and S Meridian Street","PLRSMRDN","30.40536","-84.27675","","","0","","","0","",""
"104931-2330491","2348","Ridge Road and Sunnyside Drive","RDGESNSD","30.401022","-84.304034","","","0","","","1","",""
"104931-2330492","2349","Paul Russell Road and Zillah Eb","PLRSZLLH","30.405293","-84.269055","","","0","","","1","",""
"104931-2330493","2352","Jim Lee Road and Chocksacka Nene","JMLESMAG","30.419939","-84.263833","","","0","","","0","",""
"104931-2330494","2353","South Magnolia Drive and Cherokee Drive","SMAGHOKO","30.427068","-84.261907","","","0","","","0","",""
"104931-2330495","2354","South Magnolia Drive and Circle Drive","SMAGTOCH","30.430859","-84.26183","","","0","","","1","",""
"104931-2330496","2355","South Magnolia Drive and Chowkeebin Nene","SMAGAZLA","30.434247","-84.261781","","","0","","","0","",""
"104931-2330497","2356","Magnolia Drive and Apalachee Parkway (Parkway Center)","MAGLFAY","30.436412","-84.261662","","","0","","","1","",""
"104931-2330498","2357","Magnolia Drive and Governors Square Boulevard","MAGGOVNB","30.438669","-84.261653","","","0","","","1","",""
"104931-2330499","2360","7th Avenue and Officer Ponce Way","SVNTHTPD","30.457887","-84.278194","","","0","","","1","",""
"104931-2330500","2361","Eisenhower Street and Mcelroy Street","ESNHMCEL","30.422249","-84.335801","","","0","","","0","",""
"104931-2330501","2362","Ridgeway Street and Dale Street","RIDGDALE","30.427227","-84.333135","","","0","","","1","",""
"104931-2330502","2364","Roberts Avenue at Gibb-Mabry Village Apartments","RBTSMBVL","30.429402","-84.326983","","","0","","","1","",""
"104931-2330504","2366","N Paul Dirac Drive and E Paul Dirac Drive","PAULDRAC","30.427647","-84.321426","","","0","","","1","",""
"104931-2330506","2368","Pottsdamer Street at Engineering School","POTTENGS","30.419637","-84.318358","","","0","","","1","",""
"104931-2330507","2369","Pottsdamer Street at Morcom Aquatic Center","POTTSWIM","30.417769","-84.314957","","","0","","","1","",""
"104931-2330508","2370","Pottsdamer Street and Orange Avenue","POTTORNG","30.412886","-84.314126","","","0","","","0","",""
"104931-2330509","2371","Orange Avenue and Lake Mary Street","ORNGPALM","30.412604","-84.309685","","","0","","","0","",""
"104931-2330510","2372","Orange Avenue and Springhill Road","ORNGSPHL","30.412488","-84.302734","","","0","","","1","",""
"104931-2330511","2373","Orange Avenue and Holton Street","ORNGPSCO","30.412521","-84.296071","","","0","","","1","",""
"104931-2330512","2374","Orange Avenue and Wahnish Way","ORNGWNSH","30.412446","-84.290044","","","0","","","1","",""
"104931-2330513","2376","Orange Avenue and S Meridian Street","ORNGMERD","30.412561","-84.277502","","","0","","","1","",""
"104931-2330514","2377","Orange Avenue and Coble Drive","ORNGCOBL","30.412588","-84.270828","","","0","","","1","",""
"104931-2330516","2379","Orange Avenue and Jim Lee Road","ORNGJMLE","30.41251","-84.264663","","","0","","","1","",""
"104931-2330517","2380","Blair Stone Road at Capital Commerce Center","BLSTDEPB","30.425605","-84.249341","","","0","","","1","",""
"104931-2330518","2381","Apalachee Parkway and Linda Ann Drive","APKYLNAN","30.430432","-84.245147","","","0","","","1","",""
"104931-2330519","2382","Apalachee Parkway and Kings Road","APKWFRST","30.427077","-84.230234","","","0","","","1","",""
"104931-2330520","2383","Apalachee Parkway and Carrin Drive","APKWPRC","30.428032","-84.218888","","","0","","","1","",""
"104931-2330521","2385","Apalachee Parkway and Richview Road","APKWRCVW","30.427133","-84.232341","","","0","","","1","",""
"104931-2330522","2387","Apalachee Parkway and Richardson Road","APKRCHD","30.42861","-84.239685","","","0","","","1","",""
"104931-2330523","2388","Apalachee Parkway at Target Entrance","APKWYTRG","30.430678","-84.245183","","","0","","","1","",""
"104931-2330524","2389","Blair Stone Road and Apalachee Parkway","KMARTSB","30.431232","-84.24963","","","0","","","1","",""
"104931-2330525","2390","Blair Stone Road and Blair Stone Court","BLSTHLMN","30.419184","-84.25103","","","0","","","1","",""
"104931-2330526","2391","Blair Stone Road and Orange Avenue","BLSTBRKS","30.412256","-84.251852","","","0","","","1","",""
"104931-2330527","2392","Orange Avenue and Jim Lee Road","ORGJIMLE","30.412628","-84.263396","","","0","","","1","",""
"104931-2330528","2393","Orange Avenue and Meridian Street","ORNGMRD","30.412795","-84.277513","","","0","","","1","",""
"104931-2330529","2394","Orange Avenue and S Adams Street","ORNGADAM","30.412642","-84.282692","","","0","","","1","",""
"104931-2330530","2395","Orange Avenue and Pasco Street","ORGPASCO","30.412668","-84.293863","","","0","","","1","",""
"104931-2330531","2396","Orange Avenue and Holton Street","ORGHLTN","30.412589","-84.295945","","","0","","","0","",""
"104931-2330532","2398","Basin Street and Arizona Street","BASNARZ","30.454392","-84.306497","","","0","","","1","",""
"104931-2330533","2399","Basin Street and Alabama Street","BASNALA","30.456181","-84.306487","","","0","","","1","",""
"104931-2330534","2401","Macomb Street and Gaines Street","MCBGANES","30.435816","-84.289859","","","0","","","1","",""
"104931-2330535","2402","Rail Road and All Saints Street","RRALSTS","30.433868","-84.28984","","","0","","","1","",""
"104931-2330536","2404","Holton Street and Manatee Street","HLTMNTEE","30.425738","-84.296321","","","0","","","1","",""
"104931-2330537","2405","S Monroe Street and Bass Street","MNRBASS","30.408095","-84.280765","","","0","","","1","",""
"104931-2330538","2406","S Monroe Street and Paul Russell Road","MNRPURUS","30.405572","-84.280765","","","0","","","1","",""
"104931-2330539","2408","Whanish Way near Brag Memorial Stadium","WHNSBHYS","30.42585","-84.289604","","","0","","","1","",""
"104931-2330540","2409","Wahnish Way and Gamble Street","WHWYGMBL","30.428805","-84.289585","","","0","","","1","",""
"104931-2330541","2411","Rail Road and Gaines Street","RRGANSNB","30.435199","-84.289611","","","0","","","1","",""
"104931-2330542","2412","S Macomb Street and W College Avenue","MCMBCOLL","30.440537","-84.288372","","","0","","","1","",""
"104931-2330543","2413","N Macomb Street and W Tennessee Street","MCBTENNB","30.444482","-84.288363","","","0","","","1","",""
"104931-2330544","2415","Timberlane Road and Thomasville Road (far side)","TIMTHOM","30.504732","-84.250191","","","0","","","1","",""
"104931-2330545","2416","Captal Circle NE and North Point Boulevard","CCNENRPT","30.490178","-84.241544","","","0","","","1","",""
"104931-2330546","2417","Capital Circle NE and Industrial Plaza","CCSEINDP","30.452173","-84.226632","","","0","","","1","",""
"104931-2330547","2418","Capital Circle NE and Pedlers Alley","CCSEPDLR","30.445898","-84.226724","","","0","","","1","",""
"104931-2330548","2419","Capital Circle SE and Park Avenue","CCSEPARK","30.440875","-84.226919","","","0","","","1","",""
"104931-2330549","2420","Capital Circle SE and Highland Oaks Terrace","CCSEHGOK","30.435743","-84.226698","","","0","","","1","",""
"104931-2330550","2421","Midyette Road and Centerview Drive","MIDYTTSB","30.420636","-84.235022","","","0","","","1","",""
"104931-2330551","2423","Merchants Row and Capital Circle Ne","MRCHROW","30.392282","-84.238181","","","0","","","1","",""
"104931-2330552","2424","Shumard Oaks Boulevard and Four Oaks Boulevard","SHUMFRKS","30.385831","-84.226301","","","0","","","1","",""
"104931-2330553","2426","Capital Circle SE and Apalachee Parkway","CCSEAPKW","30.428234","-84.226447","","","0","","","1","",""
"104931-2330554","2427","Capital Circle SE and Dick Wilson Boulevard","CCSEDKWL","30.431664","-84.226317","","","0","","","1","",""
"104931-2330555","2428","Capital Circle SE and Park Avenue","CCNEPKNB","30.442008","-84.226219","","","0","","","1","",""
"104931-2330556","2429","Capital Circle NE and Easterwood Drive","CCSEESTR","30.451353","-84.226195","","","0","","","1","",""
"104931-2330557","2430","Capital Circle NE south of Mahan Drive","CCSEMHNB","30.459196","-84.22779","","","0","","","1","",""
"104931-2330558","2431","Capital Circle NE and Greer Road","CCNEWMJN","30.48533","-84.23699","","","0","","","1","",""
"104931-2330560","2435","Hartsfield Road and Emerald Ridge Loop","HRTSCMBD","30.473635","-84.340178","","","0","","","1","",""
"104931-2330561","2436","Hartsfield Road and Trimble Lane","HRTSTRMB","30.473652","-84.336064","","","0","","","1","",""
"104931-2330562","2437","Hartsfield Road and Foster Road","HRTSFSTR","30.47366","-84.329292","","","0","","","1","",""
"104931-2330563","2438","Hartsfield Road and Wanda Way","HRTSWNDA","30.473695","-84.323803","","","0","","","1","",""
"104931-2330564","2440","N Meridian Road and Pinewood Drive","MRDNPNWD","30.472885","-84.277379","","","0","","","1","",""
"104931-2330565","2441","Betton Road and Trescott Drive","BETTTRES","30.466175","-84.267465","","","0","","","1","",""
"104931-2330566","2442","Miccosukee Road and River Birch Hollow","MICRVBRH","30.471633","-84.22767","","","0","","","0","",""
"104931-2330567","2443","Miccouskee Road and Miccosukee Hills Road","MICCHILL","30.473112","-84.225522","","","0","","","0","",""
"104931-2330568","2444","Miccosukee Road and Riggins Road","MICCRIGG","30.46373","-84.240635","","","0","","","1","",""
"104931-2330569","2445","Centerville Road and Physicians Drive","CTVLPHYS","30.461509","-84.260809","","","0","","","1","",""
"104931-2330571","2447","E Bradford Road and N Meridian Road","BRDMRDWB","30.467631","-84.276331","","","0","","","1","",""
"104931-2330572","2449","Portland Avenue and Atlas Road","PORTATLS","30.47761","-84.322897","","","0","","","0","",""
"104931-2330573","2450","Hartsfield Road and Garland Court","HRTSGARL","30.473849","-84.328144","","","0","","","1","",""
"104931-2330574","2451","Hartsfield Road and Trimble Road","HRTFLTRM","30.473842","-84.335455","","","0","","","1","",""
"104931-2330575","2452","Hartsfield Road and Emerald Ridge Loop","HRTEMRDG","30.473778","-84.340593","","","0","","","1","",""
"104931-2330576","2453","Hartsfield Road and N Mission Road","HRTFLMSN","30.473738","-84.344219","","","0","","","1","",""
"104931-2330577","2454","Commonwealth Boulevard and Hartsfield Road (Westbound)","CMNWLHWB","30.473703","-84.349116","","","0","","","1","",""
"104931-2330578","2455","Commonwealth Boulevard and Commonwealth Business Drive","CMNBUSWB","30.474715","-84.354201","","","0","","","1","",""
"104931-2330579","2457","W Pensacola Street and Mabry Street","PCLAMBRY","30.440962","-84.328056","","","0","","","1","",""
"104931-2330580","2458","W Gaines Street west of S Woodward Avenue","GNESWDEB","30.435471","-84.298759","","","0","","","1","",""
"104931-2330581","2459","W Gaines Street and Gay Street","GAINSGAY","30.435406","-84.293273","","","0","","","1","",""
"104931-2330582","2460","W Gaines Street and Railroad Avenue","GANESRR","30.435423","-84.289883","","","0","","","1","",""
"104931-2330583","2461","W Gaines Street and S Bronough Street","GNSBROUG","30.435419","-84.283875","","","0","","","1","",""
"104931-2330584","2462","W Gaines Street and S Monroe Street","GNESMNRE","30.435382","-84.280903","","","0","","","1","",""
"104931-2330585","2464","Old St Augustine Road and Blair Stone Road","STAUBLST","30.428481","-84.249787","","","0","","","1","",""
"104931-2330586","2465","Old St Augustine Road and Paul Russell Road","STAUPLRU","30.425055","-84.243805","","","0","","","0","",""
"104931-2330587","2466","Old St Augustine Road at Augustine Club Apartments","STAUGCLU","30.4264","-84.247599","","","0","","","0","",""
"104931-2330588","2467","Old St Augustine Road at St. Augustine Hills Apartments","STAUGHIL","30.423845","-84.239906","","","0","","","0","",""
"104931-2330589","2475","Old St Augustine Road and Hendrix Road","AUGTHNRX","30.423294","-84.237644","","","0","","","0","",""
"104931-2330590","2476","Old St Augustine Road and Paul Russell Road","AUGTPLRU","30.425271","-84.243429","","","0","","","0","",""
"104931-2330591","2477","Old St Augustine Road and Blair Stone Road","SAUGBLST","30.428364","-84.249339","","","0","","","1","",""
"104931-2330592","2479","E Gaines Street and S Monroe Street","GANSMNEB","30.435562","-84.280496","","","0","","","0","",""
"104931-2330593","2480","E Lafayette Street and S Magnolia Drive (Parkway Center)","LFYMGNWB","30.435585","-84.261419","","","0","","","0","",""
"104931-2330594","2481","W Gaines Street and S Bronough Street","GAINBRNO","30.435609","-84.284209","","","0","","","1","",""
"104931-2330595","2482","W Gaines Street and Railroad Avenue","GAINMCOB","30.435548","-84.289622","","","0","","","1","",""
"104931-2330596","2483","W Gaines Street and Gay Street","GANSGAY","30.435577","-84.292876","","","0","","","1","",""
"104931-2330599","2486","W Pensacola Street and Century Park Drive","PCLACTRY","30.439478","-84.343254","","","0","","","0","",""
"104931-2330600","2489","Commonwealth Boulevard and Department of Environmental Protection Crosswalk","CWDEP","30.476054","-84.359408","","","0","","","1","",""
"104931-2330601","2490","Alabama Street and Abraham Street","ALABRMHM","30.45625","-84.300482","","","0","","","1","",""
"104931-2330602","2491","N Macomb Street and W Virginia Street","MCMBWVIR","30.44649","-84.28861","","","0","","","1","",""
"104931-2330603","2492","N Woodward Avenue and Dunn Street","WDWRDUNN","30.449796","-84.298089","","","0","","","0","",""
"104931-2330604","2493","Calloway Street and Indiana Street","CLWYINDA","30.458831","-84.305596","","","0","","","1","",""
"104931-2330605","2495","Conner Boulevard and Reserve Drive","CNNRSRVE","30.431398","-84.202151","","","0","","","1","",""
"104931-2330607","2502","Conner Boulevard and Trojan Trail","CNRTRJTR","30.439936","-84.21907","","","0","","","1","",""
"104931-2330611","2506","Orange Avenue and Paul Dirac Drive","ORGPDIRC","30.412635","-84.328375","","","0","","","0","",""
"104931-2330612","2507","Orange Avenue and Eisenhower Street","ORGEESHN","30.414331","-84.334453","","","0","","","0","",""
"104931-2330613","2508","N Duval Street and W 7th Avenue","DVLSVNTH","30.45763","-84.282965","","","0","","","1","",""
"104931-2330614","2509","Mahan Commons (Mahan at Capital Circle Ne)","MHNCCEB","30.459299","-84.22983","","","0","","","1","",""
"104931-2330615","2512","Alabama Street and Harlem Street","ALAHRLM","30.456262","-84.303329","","","0","","","1","",""
"104931-2330616","2513","W Tharpe Street and Colorado Street","TRPCOLEB","30.463449","-84.308326","","","0","","","1","",""
"104931-2330617","2515","Allen Road and Fulton Road","ALNFULNB","30.480744","-84.294258","","","0","","","1","",""
"104931-2330618","2517","W College Avenue and S Macomb Street","COLGMCOB","30.440653","-84.28868","","","0","","","1","",""
"104931-2330619","2518","Commonwealth Boulevard and Capital Circle NW at Lowe's","CWCTWLK","30.475858","-84.364473","","","0","","","1","",""
"104931-2330620","2519","W Orange Avenue at Florida A&M Developmental Research School (Famu High)","ORGWAHN","30.412682","-84.288612","","","0","","","1","",""
"104931-2330621","2520","Hartsfield Road at Comcast","HRTSCMST","30.469296","-84.357851","","","0","","","1","",""
"104931-2330622","2521","E Tennessee Street and N Calhoun Street","TENNCLHN","30.444645","-84.27978","","","0","","","1","",""
"104931-2330623","2522","W Tennessee Street and War Chant Drive","TENNWTEN","30.451483","-84.334647","","","0","","","1","",""
"104931-2330624","2523","Levy Avenue and Iamonia Street","LVYIOMNA","30.423591","-84.310341","","","0","","","0","",""
"104931-2330625","2524","W Tharpe Street and N Monore Street at Publix","THRPMNRE","30.463581","-84.284584","","","0","","","1","",""
"104931-2330626","2526","Thomasville Road and Hermitage Boulevard","TVLEHRMT","30.488933","-84.25511","","","0","","","1","",""
"104931-2330627","2528","Fred George Road and Woodhill Drive","FDGRWOOD","30.493655","-84.341918","","","0","","","1","",""
"104931-2330628","2530","E Carolina Street and N Adams Street","CARADAMS","30.446994","-84.281906","","","0","","","1","",""
"104931-2330629","2532","Jim Lee Road and Rickards Road","RCKARDSB","30.407836","-84.263824","","","0","","","1","",""
"104931-2330630","2535","W Brevard Street and N Copeland Street","BRVCOPE","30.449089","-84.290122","","","0","","","1","",""
"104931-2330631","2536","Capital Circle NE and Capital Medical Boulevard","CCNECMED","30.472066","-84.23253","","","0","","","1","",""
"104931-2330632","2537","W Call Street and Dewey Street","CLLDEWY","30.443623","-84.293823","","","0","","","1","",""
"104931-2330633","2538","S Monroe Street at Southside Shopping Center","MNRSHOP","30.415266","-84.280516","","","0","","","1","",""
"104931-2330635","2540","S Duval Street and at W Gaines Street","DVLGAINS","30.435311","-84.283021","","","0","","","1","",""
"104931-2330636","2542","Lake Bradford Road and Mccaskill Avenue","LKBMCKLL","30.425706","-84.30242","","","0","","","1","",""
"104931-2330637","2543","Kerry Forest Parkway and Thomasville Road","WALMART","30.543449","-84.228446","","","0","","","1","",""
"104931-2330638","2544","Conner Boulevard and Capital Circle Ne","CONNCCNE","30.440803","-84.225169","","","0","","","1","",""
"104931-2330639","2545","W Palmer Avenue and Hudson Street","PALMADWB","30.427141","-84.282715","","","0","","","1","",""
"104931-2330641","2547","W Palmer Street and S Adams Street","PALMADA","30.427046","-84.282076","","","0","","","1","",""
"104931-2330643","2549","S Monroe Street and E Magnolia Drive","MNRMAGNB","30.419721","-84.280512","","","0","","","1","",""
"104931-2330644","2550","Volusia Street and Abraham Street","VOLABRWB","30.458234","-84.300264","","","0","","","0","",""
"104931-2330645","2551","Miccosukee Road and Capital Circle NE (far side)","MCINDRDG","30.470063","-84.23002","","","0","","","1","",""
"104931-2330646","2552","E Lafayette Street and Magnolia Drive (Parkway Center)","LAFMAGEB","30.435631","-84.262838","","","0","","","1","",""
"104931-2330647","2553","Midyette Road and Old St Augustine Road","MIDSTAUG","30.421491","-84.234842","","","0","","","0","",""
"104931-2330648","2554","Blair Stone Road and Old St Augustine Road","BLSTNSB","30.428784","-84.249687","","","0","","","1","",""
"104931-2330650","2557","Roberts Avenue and Suburban Boulevard","ROBSHLTR","30.429426","-84.338401","","","0","","","1","",""
"104931-2330651","2559","Jackson Bluff Road and Bantam Lane","JKBLBANT","30.434284","-84.346581","","","0","","","1","",""
"104931-2330652","2560","Nina Road and W Pensacola Street","NINAPCLA","30.436495","-84.349446","","","0","","","0","",""
"104931-2330653","2561","3333 W Pensacola Street","PCLAHMPK","30.44059","-84.339896","","","0","","","0","",""
"104931-2330654","2562","Eisenhower Street and Roberts Avenue","EISNROB","30.429464","-84.335728","","","0","","","1","",""
"104931-2330655","2563","Old Bainbridge Road and Stone Road","OLDSTONE","30.476198","-84.311754","","","0","","","1","",""
"104931-2330656","2564","High Road and Hartsfield Road","HIGHHRTS","30.472182","-84.312803","","","0","","","1","",""
"104931-2330657","2565","Appleyard Drive and W Pensacola Street","APPPENSB","30.44171","-84.338153","","","0","","","1","",""
"104931-2330658","2566","Blountstown Street and Dian Road","BLUTDIAN","30.460301","-84.34628","","","0","","","0","",""
"104931-2330659","2567","Blountstown Street and November Court","BLUTNOV","30.462057","-84.346363","","","0","","","0","",""
"104931-2330660","2568","E Virginia Street and N Calhoun Street","VIRCALWB","30.445901","-84.279487","","","0","","","1","",""
"104931-2330661","2569","Magnolia Drive at Elks Lodge","MAGELKS","30.445718","-84.262043","","","0","","","1","",""
"104931-2330662","2570","N Macomb Street and W Call Street","MCBGRAGE","30.443767","-84.288572","","","0","","","1","",""
"104931-2330663","2571","Executive Center and Apalachee Parkway","EXCAPKWY","30.426578","-84.23546","","","0","","","1","",""
"104931-2330664","2572","Miccosukee Hills Road at Office","MICLOOP1","30.47218","-84.223857","","","0","","","1","",""
"104931-2330665","2573","Miccosukee Hills Stop 2","MICLOOP2","30.471387","-84.225288","","","0","","","1","",""
"104931-2330666","2574","Miccosukee Hills Stop 3","MICLOOP3","30.470777","-84.224433","","","0","","","1","",""
"104931-2330667","2580","E Orange Avenue and Polk Drive","E ORPOLK","30.412809","-84.272221","","","0","","","1","",""
"104931-2330668","2583","W Tharpe Street and High Road","THPHGH","30.46345","-84.31287","","","0","","","1","",""
"104931-2330670","2587","Orange Avenue and Springhill Road","ORNGSPWB","30.412634","-84.302088","","","0","","","1","",""
"104931-2330672","2589","Orange Avenue and Country Club Drive","ORNGCTRY","30.412742","-84.268919","","","0","","","1","",""
"104931-2330673","2590","Orange Avenue and Southwood Drive","ORNGSWD","30.412589","-84.273675","","","0","","","1","",""
"104931-2330674","2591","Jim Lee Road and Mountbatten Road","JMLEMNTB","30.416911","-84.264013","","","0","","","1","",""
"104931-2330675","2592","Jim Lee Road and Mountbatten Road","JMLEMBNB","30.416605","-84.263886","","","0","","","0","",""
"104931-2330676","2593","Thomasvilleroad and Velda Dairy Road","THOMVDNB","30.53689","-84.230745","","","0","","","1","",""
"104931-2330677","2594","Thomasville Road and Royal Oaks Drive","THOMRYLO","30.523696","-84.23742","","","0","","","1","",""
"104931-2330678","2595","Thomasville Road and High Grove Place","THOMHGRV","30.523975","-84.237629","","","0","","","1","",""
"104931-2330679","2596","2074 Midyette Road","MID2074","30.418511","-84.235036","","","0","","","1","",""
"104931-2330680","2597","1001 High Road","1001HIGH","30.453347","-84.313417","","","0","","","1","",""
"104931-2330681","2598","Belle Vue Way at Florida State Universiy Film School","BELVFILM","30.438356","-84.323245","","","0","","","1","",""
"104931-2330682","2599","W Call Street and Stadium Drive","CALSTADF","30.446286","-84.305346","","","0","","","1","",""
"104931-2330683","2600","N Meridian Street and E Tennessee Street","MERTENN","30.445176","-84.276946","","","0","","","1","",""
"104931-2330684","2602","Apalachee Parkway and Executive Center Circle","APKWEXEC","30.427347","-84.235804","","","0","","","1","",""
"104931-2330685","2603","N Mission Road and W Tharpe Street","MISTRPNB","30.46591","-84.344162","","","0","","","1","",""
"104931-2330686","2604","Capital Medical Boulevard and Professional Park Circle","CAPPROF","30.476145","-84.229686","","","0","","","1","",""
"104931-2330687","2605","Magnolia Drive and Cherokee Drive","MAGCHER","30.427253","-84.262","","","0","","","0","",""
"104931-2330688","2606","5113 Capital Circle Se","CCSEMID","30.376032","-84.288594","","","0","","","1","",""
"104931-2330690","2612","W Madison Street and Gay Street","MADIGAY","30.436594","-84.293189","","","0","","","1","",""
"104931-2330692","2625","Thomasville Road and Greenbrier Lane","TVGBNB","30.472094","-84.26541","","","0","","","1","",""
"104931-2330693","2626","Jackson Bluff Road and Nina Road","JKBLNINA","30.434242","-84.349383","","","0","","","1","",""
"104931-2330694","2627","C.K. Steele Plaza Gate 24","GATE 24","30.444139","-84.281855","","","0","104931-2387599","","1","",""
"104931-2330695","2630","Meridian Street and Madison Street","MERGAIN","30.435956","-84.277033","","","0","","","1","",""
"104931-2330696","2632","S Meridian Street and E Madison Street (FL Department of Transportation)","MERMAD","30.436775","-84.277084","","","0","","","1","",""
"104931-2330697","2639","White Drive and Escambia Drive","WHTESNB","30.442799","-84.325886","","","0","","","1","",""
"104931-2330698","2640","White Drive at San Carlo Apartments","WHTSANCA","30.445499","-84.325927","","","0","","","1","",""
"104931-2330699","2641","White Drive and Mission Road","WHTMSNNB","30.452904","-84.326249","","","0","","","1","",""
"104931-2330700","2642","Dixie Drive at University Club","DIXMIDSB","30.44523","-84.32768","","","0","","","1","",""
"104931-2330701","2643","Dixie Drive and Escambia Drive","DIXESCSB","30.442925","-84.327701","","","0","","","1","",""
"104931-2330702","2644","Stadium Drive and Spirit Way","STADSPIR","30.442713","-84.30661","","","0","","","1","",""
"104931-2330703","2645","High Road and W Tharpe Street","HIGHSTAR","30.463394","-84.313539","","","0","","","1","",""
"104931-2330704","2646","High Road and Continental Avenue","HIGCONSB","30.456084","-84.313542","","","0","","","1","",""
"104931-2330705","2648","Eisenhower Street and Ridgeway Street","EISNRIDG","30.427062","-84.335541","","","0","","","0","",""
"104931-2330706","2649","Paul Russel Road and Prospect Street","PLRUPRSP","30.405278","-84.273432","","","0","","","1","",""
"104931-2330708","2651","Thomasville Road and Maclay Road","TOMMACSB","30.512919","-84.244398","","","0","","","1","",""
"104931-2330709","2652","Thomasville Road and Killarney Way","TOMKILLN","30.513237","-84.243586","","","0","","","1","",""
"104931-2330710","2653","N Mission Road before W Tharpe Street","MISTHRPS","30.466153","-84.344402","","","0","","","1","",""
"104931-2330711","2654","Blountstown Street and Carriage Manor Circle","BLNTCARN","30.464064","-84.346353","","","0","","","0","",""
"104931-2330712","2655","W Jefferson Street at Dorman Hall","JEFFDORM","30.439576","-84.296598","","","0","","","1","",""
"104931-2330713","2656","W Call Street and Convocation Way","CALLCONV","30.443634","-84.291985","","","0","","","1","",""
"104931-2330714","2657","Apalachee Parkway and Capital Circle Se","APKCCSE","30.427461","-84.227293","","","0","","","1","",""
"104931-2330715","2658","Crawfordville Highway and Westway Road","CRAWWEST","30.379231","-84.290775","","","0","","","1","",""
"104931-2330716","2659","N Monroe Street and Wiggington Road","MNRWIG","30.496745","-84.326548","","","0","","","0","",""
"104931-2330717","2660","N Monroe Street and E Virginia Street","MONVIR","30.44592","-84.280827","","","0","","","1","",""
"104931-2330718","2661","Mahan Drive and Pointe Court","MAHPOINT","30.450964","-84.252787","","","0","","","1","",""
"104931-2330719","2662","Mahan Drive at Publix","MAHNPUBL","30.460937","-84.225234","","","0","","","1","",""
"104931-2330720","2668","W Pensacola Street and White Drive","WPENWHIT","30.441097","-84.325876","","","0","","","1","",""
"104931-2330721","2669","2034 Blountstown Highway","BLOU2034","30.45192","-84.345528","","","0","","","0","",""
"104931-2330722","2670","N Monroe Street and Wiggington Road","NMRWIGG","30.4964","-84.325908","","","0","","","0","",""
"104931-2330723","2671","Capital Circle SE and Monday Road","CAPCMOND","30.413342","-84.235089","","","0","","","1","",""
"104931-2330724","2672","Capital Circle SE at Verandas Apartments","CCSEVERA","30.398525","-84.235178","","","0","","","1","",""
"104931-2330726","2676","E Lafayette Street and Magnolia Drive (Parkway Center)","LAFMAGFR","30.435766","-84.262587","","","0","","","1","",""
"104931-2330727","2683","Mission Road at Gretchen Everhart School","MISSGREV","30.456564","-84.340353","","","0","","","1","",""
"104931-2330728","2684","Apalachee Parkway at Fountain Plaza Shopping Center","APALFPS","30.428576","-84.210345","","","0","","","1","",""
"104931-2330730","2688","Thomasville Road and Village Square Boulevard","THVSQSB","30.510575","-84.247107","","","0","","","1","",""
"104931-2330733","2694","Municipal Way at Sheriffs Office","MUNHPEEB","30.439828","-84.333512","","","0","","","1","",""
"104931-2330734","2695","Dupree Street at Kearney Avenue","KEARNYEB","30.440449","-84.331478","","","0","","","1","",""
"104931-2330735","2698","Franklin Boulevard and E College Avenue","FRKNCOLG","30.440465","-84.275537","","","0","","","1","",""
"104931-2330737","2700","Shelfer Road and Crossway Road","SHELCRSW","30.378024","-84.281601","","","0","","","0","",""
"104931-2330740","2703","Old Bainbridge Road and High Road","OLDBBHGH","30.473296","-84.311292","","","0","","","1","",""
"104931-2330742","2705","Blair Stone Road at Veterans Clinic","VACLINIC","30.409747","-84.24902","","","0","","","1","",""
"104931-2335561","2666","Capital Circle NE and Mahan Drive (Far Side)","CCMAH","30.459089","-84.228187","","","0","","","1","",""
"104931-2387599","","C.K.Steele Plaza","","30.44417","-84.282491","","","1","","America/New_York","0","",""
"104931-2394639","2546","Gamble Street and Cleveland Street","GAMCLEV","30.428637","-84.295008","","","0","","","1","",""
"104931-2436148","2728","Centerville Road and Medical Drive","","30.460262","-84.261561","","","0","","","1","",""
"104931-2436485","470","W Virginia Street & N Macomb Street","W VI470","30.445829","-84.288238","","","0","","","0","",""
"104931-2438990","2726","Old Saint Augustine Rd and Dacron Rd","STAUGDAC","30.431347","-84.252621","","","0","","","0","",""
"104931-2440612","2079","Mahan Drive and N Magnolia Drive","","30.448278","-84.261222","","","0","","","1","",""
"104931-2440613","2143","Shelfer Road and Ross Road Inbound","","30.385806","-84.282444","","","0","","","1","",""
"104931-2440832","2731","W Tennessee Street at Elder Care","","30.448904","-84.329472","","","0","","","0","",""
"104931-2452888","204","Varsity Drive and W Pensacola Street","","30.438506","-84.300656","","","0","","","1","",""
"104931-2452890","2721","Appleyard Drive at Ace School","","30.448859","-84.33809","","","0","","","1","",""
"104931-2555772","248","Chieftan Way and Kellum Hall","","30.446773","-84.302088","","","0","","","1","",""
"104931-2555773","2195","Chieftan Way and Call Street Sb","","30.445489","-84.302462","","","0","","","1","",""
"104931-2555902","2746","Surgeons at One Healing Place","","30.458536","-84.253926","","","0","","","1","",""
"104931-2555903","2747","Surgeons at TCC Health","","30.460132","-84.256606","","","0","","","1","",""
"104931-2558949","2743","4th Ave at Leverne Payne Community Center","","30.453661","-84.28743","","","0","","","1","",""
"104931-2558950","509","W 4th Ave at Ford St","","30.453703","-84.289761","","","0","","","0","",""
"104931-2558951","2744","Gibbs Dr. at 5th Ave","","30.454813","-84.291779","","","0","","","0","",""
"104931-2558952","512","Gibbs Dr at W 7th Ave","","30.457712","-84.291777","","","0","","","0","",""
"104931-2558953","514","W 10th at Gibbs Dr","","30.461336","-84.291788","","","0","","","0","",""
"104931-2558954","515","Gibbs Dr at W Tharpe St","","30.463481","-84.291795","","","0","","","0","",""
"104931-2558970","1050","Atlas Rd 2465","","30.475911","-84.322853","","","0","","","1","",""
"104931-2558971","513","Gibbs Dr at W 10th Ave","","30.46152","-84.291923","","","0","","","0","",""
"104931-2558972","649","Gibbs Dr at 7th Ave","","30.457872","-84.291901","","","0","","","0","",""
"104931-2558973","650","Gibbs Dr at 6th Ave","","30.455876","-84.291858","","","0","","","0","",""
"104931-2559050","511","W 4th Ave and Central St","","30.453594","-84.290993","","","0","","","1","",""
"104931-2559051","2607","Varsity at Saint Agustine","","30.43766","-84.300907","","","0","","","1","",""
"104931-2559178","2749","Surgeons Drive at Medical Drive","","30.459432","-84.259549","","","0","","","1","",""
"104931-2559179","2750","Surgeons Drive at Hodges Drive","","30.458992","-84.26101","","","0","","","1","",""
"104931-2559180","573","John Knox Rd at Tallahassee Center","","30.474565","-84.287562","","","0","","","1","",""
"104931-2559181","2448","John Knox Rd at Rolling Hills Apartments","","30.474644","-84.284056","","","0","","","1","",""
"104931-2559182","938","Centerville Dr and E 7th Avenue","","30.457274","-84.26291","","","0","","","0","",""
"104931-2559183","590","John Knox Rd at Delta Blvd","","30.474448","-84.280604","","","0","","","1","",""
"104931-2559184","588","John Knox Rd at Woodcrest Office Park","","30.474344","-84.285524","","","0","","","1","",""
"104931-2559185","2439","John Knox Rd at Monroe St","","30.472487","-84.290308","","","0","","","1","",""
"104931-2559186","2745","Allen Road at Mall","","30.476027","-84.294333","","","0","","","1","",""
"104931-2559187","524","Allen Rd at Green Acorn Ln","","30.478835","-84.294363","","","0","","","1","",""
"104931-2559188","530","Allen Rd at Fulton Rd","","30.480778","-84.294331","","","0","","","1","",""
"104931-2559189","2738","Wahnish Way at Famu Police Department","","30.416921","-84.289666","","","0","","","1","",""
"104931-2559315","2722","Monroe Rd at Swatts Rd","","30.501773","-84.329068","","","0","","","0","",""
"104931-2559320","435","Old St Augustine at Intramural Field","","30.437596","-84.299832","","","0","","","1","",""
"104931-2559321","2151","West St Augustine at Gay Street (Eastbound)","W ST180","30.437405","-84.293167","","","0","","","1","",""
"104931-2559322","893","Ross Rd & Shelfer Rd","","30.38182","-84.282361","","","0","","","1","",""
"104931-2559324","320","E Park Ave at Magnolia","","30.441657","-84.262233","","","0","","","1","",""
"104931-2559325","2740","Park Ave at Reese Park (Eastbound)","","30.441639","-84.255102","","","0","","","1","",""
"104931-2574557","2761","W Call St at Palm Court Parking Lot","","30.44357","-84.289565","","","0","","","1","",""
"104931-2734735","85","Commonwealth Boulevard and Hartsfield Road (Eastbound)","COMM85","30.473803","-84.349528","","","0","","","1","",""
"104931-2734736","270","North Monroe Street at Sharer Road","N MO270","30.477721","-84.29877","","","0","","","1","",""
"104931-2734752","603","Tennessee Street and Magnolia Drive (Eastbound)","MHNEBMAG","30.446661","-84.26478","","","0","","","1","",""
"104931-2734754","1031","Lake Bradford Road at Levy Avenue (Southbound)","LKBFLEVY","30.423706","-84.30239","","","0","","","1","",""
"104931-2734823","2741","Park Avenue at Reese Park (Westbound)","PAKREEWB","30.441858","-84.254846","","","0","","","1","",""
"104931-2734824","2742","Tharpe West of Old Bainbridge Far Side","THPOLBG","30.463698","-84.302043","","","0","","","0","",""
"104931-2734827","2751","Park Avenue at Belmont Road (Westbound)","PRKBELMT","30.441938","-84.2584","","","0","","","1","",""
"104931-2734831","2754","Capital Circle at Orange Avenue (Southbound)","CAPORGSB","30.409728","-84.23516","","","0","","","1","",""
"104931-2734832","2758","Capital Circle at Orange Avenue (Northbound)","CAPORGNB","30.408403","-84.23476","","","0","","","1","",""
"104931-2734833","308","East Park Avenue and North Franklin Boulevard (Westbound)","E PA308","30.441908","-84.275076","","","0","","","0","",""
"104931-2738220","2755","North Monroe Street at Lang Drive","","30.489237","-84.321851","","","0","","","0","",""
"104931-2740090","2686","Jefferson at College of Law","","30.439687","-84.287737","","","0","","","0","",""
"104931-2751941","2040","College Avenue and Mccomb Street","","30.440312","-84.288593","","","0","","","0","",""
"104931-4242081","2548","Monroe Street at Putnam Drive","","30.416421","-84.280437","","","0","","","1","",""
"104931-4242116","215","Old Bainbridge Road at Pullen Road","","30.478259","-84.31434","","","0","","","1","",""
"104931-4243138","2773","Velda Dairy and Tredington Park Dr","","30.537471","-84.222594","","","0","","","1","",""
"104931-4243139","2774","Kerry Forest Parkway and Appledore Lane","","30.540646","-84.220281","","","0","","","1","",""
"104931-4243140","2775","Kerry Forest Parkway and North Hampton Shopping Center","","30.541056","-84.225356","","","0","","","1","",""
"104931-4243141","2367","Paul Dirac and Levy Ave","","30.424935","-84.319695","","","0","","","1","",""
"104931-4243142","987","Lake Bradford Road at Levy Avenue","","30.423319","-84.302301","","","0","","","1","",""
"104931-4244560","2776","Jackson Bluff Rd at Jackson Forest Apt.","","30.434443","-84.321904","","","0","","","0","",""
"104931-4244563","417","1313 Blairstone Rd","","30.43019","-84.249514","","","0","","","0","",""
